{"type": "FeatureCollection", "features": [{"type": "Feature", "geometry": {"type": "Point", "coordinates": [-131.661, 55.983]}, "properties": {"spring_name": "BAILEY HOT SPRING", "temp_f": 198.0, "ph": 1.0, "location": NaN, "usgs_quad": NaN}}, {"type": "Feature", "geometry": {"type": "Point", "coordinates": [-134.839, 57.085]}, "properties": {"spring_name": "BARANOF WARM SPRINGS", "temp_f": 124.0, "ph": 1.0, "location": NaN, "usgs_quad": NaN}}, {"type": "Feature", "geometry": {"type": "Point", "coordinates": [-131.882, 56.68]}, "properties": {"spring_name": "BARNES LAKE HOT SPRINGS", "temp_f": 79.0, "ph": 1.0, "location": NaN, "usgs_quad": NaN}}, {"type": "Feature", "geometry": {"type": "Point", "coordinates": [-131.559, 55.933]}, "properties": {"spring_name": "BELL ISLAND HOT SPRINGS", "temp_f": 165.0, "ph": 2.0, "location": NaN, "usgs_quad": NaN}}, {"type": "Feature", "geometry": {"type": "Point", "coordinates": [-131.267, 56.233]}, "properties": {"spring_name": "BRADFIELD CANAL HOT SPRINGS", "temp_f": 135.0, "ph": 2.0, "location": NaN, "usgs_quad": NaN}}, {"type": "Feature", "geometry": {"type": "Point", "coordinates": [-146.057, 65.053]}, "properties": {"spring_name": "CHENA HOT SPRINGS", "temp_f": 153.0, "ph": 1.0, "location": NaN, "usgs_quad": NaN}}, {"type": "Feature", "geometry": {"type": "Point", "coordinates": [-132.005, 56.717]}, "properties": {"spring_name": "CHIEF SHAKES HOT SPRINGS", "temp_f": 122.0, "ph": 1.0, "location": NaN, "usgs_quad": NaN}}, {"type": "Feature", "geometry": {"type": "Point", "coordinates": [-169.9, 52.84]}, "properties": {"spring_name": "CHUGINADAK HOT SPRINGS", "temp_f": 200.0, "ph": 2.0, "location": NaN, "usgs_quad": NaN}}, {"type": "Feature", "geometry": {"type": "Point", "coordinates": [-144.637, 65.483]}, "properties": {"spring_name": "CIRCLE HOT SPRINGS", "temp_f": 135.0, "ph": 1.0, "location": NaN, "usgs_quad": NaN}}, {"type": "Feature", "geometry": {"type": "Point", "coordinates": [-162.3, 64.85]}, "properties": {"spring_name": "CLEAR CREEK HOT SPRINGS", "temp_f": 149.0, "ph": 1.0, "location": NaN, "usgs_quad": NaN}}, {"type": "Feature", "geometry": {"type": "Point", "coordinates": [-149.547, 66.217]}, "properties": {"spring_name": "DALL HOT SPRINGS", "temp_f": 129.0, "ph": 1.0, "location": NaN, "usgs_quad": NaN}}, {"type": "Feature", "geometry": {"type": "Point", "coordinates": [-133.641, 55.334]}, "properties": {"spring_name": "DALTON (CRAIG) HOT SPRINGS", "temp_f": 109.0, "ph": 1.0, "location": NaN, "usgs_quad": NaN}}, {"type": "Feature", "geometry": {"type": "Point", "coordinates": [-154.993, 65.908]}, "properties": {"spring_name": "DENIKTOW RIDGE HOT SPRINGS", "temp_f": 200.0, "ph": 2.0, "location": NaN, "usgs_quad": NaN}}, {"type": "Feature", "geometry": {"type": "Point", "coordinates": [-161.961, 55.368]}, "properties": {"spring_name": "FUMAROLE", "temp_f": 200.0, "ph": 1.0, "location": NaN, "usgs_quad": NaN}}, {"type": "Feature", "geometry": {"type": "Point", "coordinates": [-178.793, 51.775]}, "properties": {"spring_name": "FUMAROLES ON GARELOI ISLAND", "temp_f": 200.0, "ph": 1.0, "location": NaN, "usgs_quad": NaN}}, {"type": "Feature", "geometry": {"type": "Point", "coordinates": [-178.77, 51.762]}, "properties": {"spring_name": "FUMAROLES ON GARELOI ISLAND", "temp_f": 144.0, "ph": 2.0, "location": NaN, "usgs_quad": NaN}}, {"type": "Feature", "geometry": {"type": "Point", "coordinates": [-177.16, 51.925]}, "properties": {"spring_name": "FUMAROLES ON KANAGA ISLAND", "temp_f": 219.0, "ph": 1.0, "location": NaN, "usgs_quad": NaN}}, {"type": "Feature", "geometry": {"type": "Point", "coordinates": [178.547, 51.944]}, "properties": {"spring_name": "FUMAROLES ON LITTLE SITKIN ISLAND", "temp_f": 200.0, "ph": 3.0, "location": NaN, "usgs_quad": NaN}}, {"type": "Feature", "geometry": {"type": "Point", "coordinates": [178.491, 51.963]}, "properties": {"spring_name": "FUMAROLES ON LITTLE SITKIN ISLAND", "temp_f": 200.0, "ph": 2.0, "location": NaN, "usgs_quad": NaN}}, {"type": "Feature", "geometry": {"type": "Point", "coordinates": [178.444, 51.967]}, "properties": {"spring_name": "FUMAROLES ON LITTLE SITKIN ISLAND", "temp_f": 200.0, "ph": 1.0, "location": NaN, "usgs_quad": NaN}}, {"type": "Feature", "geometry": {"type": "Point", "coordinates": [-156.499, 57.865]}, "properties": {"spring_name": "GAS ROCKS HOT SPRING", "temp_f": 127.0, "ph": 1.0, "location": NaN, "usgs_quad": NaN}}, {"type": "Feature", "geometry": {"type": "Point", "coordinates": [-135.374, 56.836]}, "properties": {"spring_name": "GODDARD HOT SPRINGS", "temp_f": 153.0, "ph": 1.0, "location": NaN, "usgs_quad": NaN}}, {"type": "Feature", "geometry": {"type": "Point", "coordinates": [-161.25, 65.367]}, "properties": {"spring_name": "GRANITE MOUNTAIN HOT SPRINGS", "temp_f": 120.0, "ph": 1.0, "location": NaN, "usgs_quad": NaN}}, {"type": "Feature", "geometry": {"type": "Point", "coordinates": [-154.837, 64.924]}, "properties": {"spring_name": "HORNER HOT SPRINGS", "temp_f": 117.0, "ph": 1.0, "location": NaN, "usgs_quad": NaN}}, {"type": "Feature", "geometry": {"type": "Point", "coordinates": [-151.238, 61.267]}, "properties": {"spring_name": "HOT LAKE IN BOTTOM OF CRATER PEAK", "temp_f": 200.0, "ph": 1.0, "location": NaN, "usgs_quad": NaN}}, {"type": "Feature", "geometry": {"type": "Point", "coordinates": [-162.137, 55.334]}, "properties": {"spring_name": "HOT SPRING AT WEST END EMMONS LAKE", "temp_f": 68.0, "ph": 1.0, "location": NaN, "usgs_quad": NaN}}, {"type": "Feature", "geometry": {"type": "Point", "coordinates": [-153.883, 67.403]}, "properties": {"spring_name": "HOT SPRING NEAR ARRIGETCH PEAKS", "temp_f": 90.0, "ph": 1.0, "location": NaN, "usgs_quad": NaN}}, {"type": "Feature", "geometry": {"type": "Point", "coordinates": [-135.385, 57.348]}, "properties": {"spring_name": "HOT SPRING NEAR FISH BAY", "temp_f": 117.0, "ph": 4.0, "location": NaN, "usgs_quad": NaN}}, {"type": "Feature", "geometry": {"type": "Point", "coordinates": [-157.933, 62.45]}, "properties": {"spring_name": "HOT SPRING NEAR FLAT", "temp_f": 90.0, "ph": 1.0, "location": NaN, "usgs_quad": NaN}}, {"type": "Feature", "geometry": {"type": "Point", "coordinates": [-155.09, 58.24]}, "properties": {"spring_name": "HOT SPRING NEAR KATMAI PASS", "temp_f": 200.0, "ph": 1.0, "location": NaN, "usgs_quad": NaN}}, {"type": "Feature", "geometry": {"type": "Point", "coordinates": [-162.467, 64.7]}, "properties": {"spring_name": "HOT SPRING NEAR KWINIUK RIVER", "temp_f": 106.0, "ph": 2.0, "location": NaN, "usgs_quad": NaN}}, {"type": "Feature", "geometry": {"type": "Point", "coordinates": [-150.0, 65.45]}, "properties": {"spring_name": "HOT SPRING NEAR LITTLE MINOOK CR", "temp_f": 200.0, "ph": 3.0, "location": NaN, "usgs_quad": NaN}}, {"type": "Feature", "geometry": {"type": "Point", "coordinates": [-157.015, 57.178]}, "properties": {"spring_name": "HOT SPRING NEAR MOTHER GOOSE LAKE", "temp_f": 138.0, "ph": 1.0, "location": NaN, "usgs_quad": NaN}}, {"type": "Feature", "geometry": {"type": "Point", "coordinates": [-160.493, 55.863]}, "properties": {"spring_name": "HOT SPRING NEAR PORT MOLLER", "temp_f": 160.0, "ph": 1.0, "location": NaN, "usgs_quad": NaN}}, {"type": "Feature", "geometry": {"type": "Point", "coordinates": [-160.692, 61.058]}, "properties": {"spring_name": "HOT SPRING NEAR TULUKSAK RIVER", "temp_f": 200.0, "ph": 1.0, "location": NaN, "usgs_quad": NaN}}, {"type": "Feature", "geometry": {"type": "Point", "coordinates": [-135.82, 57.771]}, "properties": {"spring_name": "HOT SPRING NORTH ARM PERIL STRAIT", "temp_f": 100.0, "ph": 2.0, "location": NaN, "usgs_quad": NaN}}, {"type": "Feature", "geometry": {"type": "Point", "coordinates": [-162.885, 54.9]}, "properties": {"spring_name": "HOT SPRING ON AMAGAT ISLAND", "temp_f": 200.0, "ph": 1.0, "location": NaN, "usgs_quad": NaN}}, {"type": "Feature", "geometry": {"type": "Point", "coordinates": [173.13, 52.87]}, "properties": {"spring_name": "HOT SPRING ON ATTU ISLAND", "temp_f": 90.0, "ph": 1.0, "location": NaN, "usgs_quad": NaN}}, {"type": "Feature", "geometry": {"type": "Point", "coordinates": [-142.848, 65.047]}, "properties": {"spring_name": "HOT SPRING ON FLAT CREEK", "temp_f": 90.0, "ph": 1.0, "location": NaN, "usgs_quad": NaN}}, {"type": "Feature", "geometry": {"type": "Point", "coordinates": [-169.71, 52.96]}, "properties": {"spring_name": "HOT SPRING ON KAGAMIL ISLAND", "temp_f": 200.0, "ph": 1.0, "location": NaN, "usgs_quad": NaN}}, {"type": "Feature", "geometry": {"type": "Point", "coordinates": [178.5, 51.94]}, "properties": {"spring_name": "HOT SPRING ON LITTLE SITKIN ISLAND", "temp_f": 200.0, "ph": 4.0, "location": NaN, "usgs_quad": NaN}}, {"type": "Feature", "geometry": {"type": "Point", "coordinates": [-172.317, 52.358]}, "properties": {"spring_name": "HOT SPRING ON SEGUAM ISLAND", "temp_f": 200.0, "ph": 1.0, "location": NaN, "usgs_quad": NaN}}, {"type": "Feature", "geometry": {"type": "Point", "coordinates": [-177.79, 51.81]}, "properties": {"spring_name": "HOT SPRING ON TANAGA ISLAND", "temp_f": 200.0, "ph": 2.0, "location": NaN, "usgs_quad": NaN}}, {"type": "Feature", "geometry": {"type": "Point", "coordinates": [-156.3, 64.002]}, "properties": {"spring_name": "HOT SPRING ON TRIBUTARY OF INNOKO R", "temp_f": 200.0, "ph": 1.0, "location": NaN, "usgs_quad": NaN}}, {"type": "Feature", "geometry": {"type": "Point", "coordinates": [-142.42, 60.837]}, "properties": {"spring_name": "HOT SPRING ON TWELVEMILE CREEK", "temp_f": 90.0, "ph": 1.0, "location": NaN, "usgs_quad": NaN}}, {"type": "Feature", "geometry": {"type": "Point", "coordinates": [-168.3, 53.233]}, "properties": {"spring_name": "HOT SPRING ON UMNAK ISLAND", "temp_f": 149.0, "ph": 5.0, "location": NaN, "usgs_quad": NaN}}, {"type": "Feature", "geometry": {"type": "Point", "coordinates": [-164.55, 54.66]}, "properties": {"spring_name": "HOT SPRING ON UNIMAK ISLAND", "temp_f": 200.0, "ph": 1.0, "location": NaN, "usgs_quad": NaN}}, {"type": "Feature", "geometry": {"type": "Point", "coordinates": [-153.98, 58.92]}, "properties": {"spring_name": "HOT SPRING WEST OF CAPE DOUGLAS", "temp_f": 200.0, "ph": 1.0, "location": NaN, "usgs_quad": NaN}}, {"type": "Feature", "geometry": {"type": "Point", "coordinates": [-162.483, 55.217]}, "properties": {"spring_name": "HOT SPRINGS EAST OF COLD BAY", "temp_f": 129.0, "ph": 2.0, "location": NaN, "usgs_quad": NaN}}, {"type": "Feature", "geometry": {"type": "Point", "coordinates": [-150.717, 63.883]}, "properties": {"spring_name": "HOT SPRINGS EAST OF DIAMOND", "temp_f": 90.0, "ph": 1.0, "location": NaN, "usgs_quad": NaN}}, {"type": "Feature", "geometry": {"type": "Point", "coordinates": [-156.767, 66.367]}, "properties": {"spring_name": "HOT SPRINGS NEAR DIVISION BM", "temp_f": 140.0, "ph": 1.0, "location": NaN, "usgs_quad": NaN}}, {"type": "Feature", "geometry": {"type": "Point", "coordinates": [-155.28, 65.267]}, "properties": {"spring_name": "HOT SPRINGS NEAR DULBI RIVER", "temp_f": 126.0, "ph": 1.0, "location": NaN, "usgs_quad": NaN}}, {"type": "Feature", "geometry": {"type": "Point", "coordinates": [-168.463, 53.213]}, "properties": {"spring_name": "HOT SPRINGS NEAR GEYSER BIGHT", "temp_f": 216.0, "ph": 7.0, "location": NaN, "usgs_quad": NaN}}, {"type": "Feature", "geometry": {"type": "Point", "coordinates": [-168.445, 53.207]}, "properties": {"spring_name": "HOT SPRINGS NEAR GEYSER BIGHT", "temp_f": 200.0, "ph": 8.0, "location": NaN, "usgs_quad": NaN}}, {"type": "Feature", "geometry": {"type": "Point", "coordinates": [-168.477, 53.223]}, "properties": {"spring_name": "HOT SPRINGS NEAR GEYSER BIGHT", "temp_f": 214.0, "ph": 6.0, "location": NaN, "usgs_quad": NaN}}, {"type": "Feature", "geometry": {"type": "Point", "coordinates": [-151.233, 63.683]}, "properties": {"spring_name": "HOT SPRINGS NEAR GLACIER", "temp_f": 90.0, "ph": 1.0, "location": NaN, "usgs_quad": NaN}}, {"type": "Feature", "geometry": {"type": "Point", "coordinates": [-165.85, 54.157]}, "properties": {"spring_name": "HOT SPRINGS NEAR HOT SPRINGS BAY", "temp_f": 181.0, "ph": 3.0, "location": NaN, "usgs_quad": NaN}}, {"type": "Feature", "geometry": {"type": "Point", "coordinates": [-168.365, 53.242]}, "properties": {"spring_name": "HOT SPRINGS NEAR HOT SPRINGS COVE", "temp_f": 192.0, "ph": 4.0, "location": NaN, "usgs_quad": NaN}}, {"type": "Feature", "geometry": {"type": "Point", "coordinates": [-168.358, 53.253]}, "properties": {"spring_name": "HOT SPRINGS NEAR HOT SPRINGS COVE", "temp_f": 158.0, "ph": 3.0, "location": NaN, "usgs_quad": NaN}}, {"type": "Feature", "geometry": {"type": "Point", "coordinates": [-137.09, 58.37]}, "properties": {"spring_name": "HOT SPRINGS NEAR ICY POINT", "temp_f": 153.0, "ph": 1.0, "location": NaN, "usgs_quad": NaN}}, {"type": "Feature", "geometry": {"type": "Point", "coordinates": [-162.9, 65.217]}, "properties": {"spring_name": "HOT SPRINGS NEAR LAVA CREEK", "temp_f": 127.0, "ph": 1.0, "location": NaN, "usgs_quad": NaN}}, {"type": "Feature", "geometry": {"type": "Point", "coordinates": [-166.873, 53.848]}, "properties": {"spring_name": "HOT SPRINGS NEAR MAKUSHIN VOLCANO", "temp_f": 94.0, "ph": 4.0, "location": NaN, "usgs_quad": NaN}}, {"type": "Feature", "geometry": {"type": "Point", "coordinates": [-166.918, 53.851]}, "properties": {"spring_name": "HOT SPRINGS NEAR MAKUSHIN VOLCANO", "temp_f": 200.0, "ph": 3.0, "location": NaN, "usgs_quad": NaN}}, {"type": "Feature", "geometry": {"type": "Point", "coordinates": [-163.251, 54.944]}, "properties": {"spring_name": "HOT SPRINGS NEAR MORZHOVOI", "temp_f": 145.0, "ph": 1.0, "location": NaN, "usgs_quad": NaN}}, {"type": "Feature", "geometry": {"type": "Point", "coordinates": [-154.89, 58.27]}, "properties": {"spring_name": "HOT SPRINGS NEAR MT KATMAI", "temp_f": 200.0, "ph": 1.0, "location": NaN, "usgs_quad": NaN}}, {"type": "Feature", "geometry": {"type": "Point", "coordinates": [-159.863, 61.2]}, "properties": {"spring_name": "HOT SPRINGS NEAR OPHIR CREEK", "temp_f": 145.0, "ph": 1.0, "location": NaN, "usgs_quad": NaN}}, {"type": "Feature", "geometry": {"type": "Point", "coordinates": [-157.117, 66.15]}, "properties": {"spring_name": "HOT SPRINGS NEAR SOUTH BM", "temp_f": 122.0, "ph": 3.0, "location": NaN, "usgs_quad": NaN}}, {"type": "Feature", "geometry": {"type": "Point", "coordinates": [-166.448, 53.877]}, "properties": {"spring_name": "HOT SPRINGS NEAR SUMMER BAY", "temp_f": 200.0, "ph": 2.0, "location": NaN, "usgs_quad": NaN}}, {"type": "Feature", "geometry": {"type": "Point", "coordinates": [-136.017, 58.033]}, "properties": {"spring_name": "HOT SPRINGS NORTH END TENAKEE INLET", "temp_f": 180.0, "ph": 1.0, "location": NaN, "usgs_quad": NaN}}, {"type": "Feature", "geometry": {"type": "Point", "coordinates": [-176.61, 51.97]}, "properties": {"spring_name": "HOT SPRINGS ON ADAK ISLAND", "temp_f": 154.0, "ph": 1.0, "location": NaN, "usgs_quad": NaN}}, {"type": "Feature", "geometry": {"type": "Point", "coordinates": [-165.41, 54.18]}, "properties": {"spring_name": "HOT SPRINGS ON AKUN ISLAND", "temp_f": 200.0, "ph": 2.0, "location": NaN, "usgs_quad": NaN}}, {"type": "Feature", "geometry": {"type": "Point", "coordinates": [-165.66, 54.23]}, "properties": {"spring_name": "HOT SPRINGS ON AKUN ISLAND", "temp_f": 200.0, "ph": 1.0, "location": NaN, "usgs_quad": NaN}}, {"type": "Feature", "geometry": {"type": "Point", "coordinates": [-174.25, 52.19]}, "properties": {"spring_name": "HOT SPRINGS ON ATKA ISLAND", "temp_f": 167.0, "ph": 3.0, "location": NaN, "usgs_quad": NaN}}, {"type": "Feature", "geometry": {"type": "Point", "coordinates": [-174.26, 52.34]}, "properties": {"spring_name": "HOT SPRINGS ON ATKA ISLAND", "temp_f": 200.0, "ph": 1.0, "location": NaN, "usgs_quad": NaN}}, {"type": "Feature", "geometry": {"type": "Point", "coordinates": [-174.042, 52.27]}, "properties": {"spring_name": "HOT SPRINGS ON ATKA ISLAND", "temp_f": 200.0, "ph": 2.0, "location": NaN, "usgs_quad": NaN}}, {"type": "Feature", "geometry": {"type": "Point", "coordinates": [-144.483, 65.233]}, "properties": {"spring_name": "HOT SPRINGS ON BIG WINDY CREEK", "temp_f": 200.0, "ph": 2.0, "location": NaN, "usgs_quad": NaN}}, {"type": "Feature", "geometry": {"type": "Point", "coordinates": [-168.037, 53.95]}, "properties": {"spring_name": "HOT SPRINGS ON BOGOSLOF ISLAND", "temp_f": 200.0, "ph": 1.0, "location": NaN, "usgs_quad": NaN}}, {"type": "Feature", "geometry": {"type": "Point", "coordinates": [-176.108, 52.042]}, "properties": {"spring_name": "HOT SPRINGS ON GREAT SITKIN ISLAND", "temp_f": NaN, "ph": 1.0, "location": NaN, "usgs_quad": NaN}}, {"type": "Feature", "geometry": {"type": "Point", "coordinates": [-157.583, 66.233]}, "properties": {"spring_name": "HOT SPRINGS ON HAWK RIVER", "temp_f": NaN, "ph": 2.0, "location": NaN, "usgs_quad": NaN}}, {"type": "Feature", "geometry": {"type": "Point", "coordinates": [-150.56, 65.983]}, "properties": {"spring_name": "HOT SPRINGS ON LOWER RAY RIVER", "temp_f": NaN, "ph": 1.0, "location": "(TANANA (D-2) 15)", "usgs_quad": NaN}}, {"type": "Feature", "geometry": {"type": "Point", "coordinates": [-157.733, 61.363]}, "properties": {"spring_name": "HOT SPRINGS ON UPPER CHUILNUK RIVER", "temp_f": NaN, "ph": 1.0, "location": "(SLEETMUTE (B-4) 15)", "usgs_quad": NaN}}, {"type": "Feature", "geometry": {"type": "Point", "coordinates": [-149.993, 65.216]}, "properties": {"spring_name": "HUTLINANA HOT SPRINGS", "temp_f": NaN, "ph": 1.0, "location": "LIVENGOOD (A-6) 15", "usgs_quad": NaN}}, {"type": "Feature", "geometry": {"type": "Point", "coordinates": [-150.85, 66.342]}, "properties": {"spring_name": "KANUTI HOT SPRINGS", "temp_f": NaN, "ph": 1.0, "location": "(BETTLES (B-2) 15)", "usgs_quad": NaN}}, {"type": "Feature", "geometry": {"type": "Point", "coordinates": [-151.237, 65.81]}, "properties": {"spring_name": "KILO HOT SPRING", "temp_f": NaN, "ph": 1.0, "location": "TANANA (D-3)", "usgs_quad": NaN}}, {"type": "Feature", "geometry": {"type": "Point", "coordinates": [-153.312, 65.459]}, "properties": {"spring_name": "LITTLE MELOZITNA HOT SPRINGS", "temp_f": NaN, "ph": 1.0, "location": "MELOZITNA (B-1) 15", "usgs_quad": NaN}}, {"type": "Feature", "geometry": {"type": "Point", "coordinates": [-166.93, 53.892]}, "properties": {"spring_name": "MAKUSHIN VOLCANO FUMAROLES", "temp_f": NaN, "ph": 1.0, "location": NaN, "usgs_quad": NaN}}, {"type": "Feature", "geometry": {"type": "Point", "coordinates": [-150.633, 65.006]}, "properties": {"spring_name": "MANLEY HOT SPRINGS", "temp_f": NaN, "ph": 4.0, "location": "TANANA (A-2)", "usgs_quad": NaN}}, {"type": "Feature", "geometry": {"type": "Point", "coordinates": [-154.692, 65.129]}, "properties": {"spring_name": "MELOZI (MELOZITNA) SPRINGS", "temp_f": NaN, "ph": 3.0, "location": "MELOZITNA (A-4) 15", "usgs_quad": NaN}}, {"type": "Feature", "geometry": {"type": "Point", "coordinates": [-145.222, 62.058]}, "properties": {"spring_name": "MINERAL SPRING (LOWER KLAWASI CONE)", "temp_f": NaN, "ph": 2.0, "location": "GULKANA (A-3) 15", "usgs_quad": NaN}}, {"type": "Feature", "geometry": {"type": "Point", "coordinates": [-135.333, 57.644]}, "properties": {"spring_name": "NYLEN HOT SPRINGS", "temp_f": NaN, "ph": 3.0, "location": "(SITKA (C-5) 15)", "usgs_quad": NaN}}, {"type": "Feature", "geometry": {"type": "Point", "coordinates": [-144.044, 69.33]}, "properties": {"spring_name": "OKPILAK SPRINGS", "temp_f": NaN, "ph": 1.0, "location": "(MT. MICHELSON (B-1) 15)", "usgs_quad": NaN}}, {"type": "Feature", "geometry": {"type": "Point", "coordinates": [-164.922, 65.093]}, "properties": {"spring_name": "PILGRIM SPRINGS", "temp_f": NaN, "ph": 2.0, "location": "BENDELEBEN (A-6) 15", "usgs_quad": NaN}}, {"type": "Feature", "geometry": {"type": "Point", "coordinates": [-154.033, 65.97]}, "properties": {"spring_name": "POCAHONTAS HOT SPRINGS", "temp_f": NaN, "ph": 1.0, "location": "MELOZITNA (D-3) 15", "usgs_quad": NaN}}, {"type": "Feature", "geometry": {"type": "Point", "coordinates": [-150.919, 65.963]}, "properties": {"spring_name": "RAY RIVER HOT SPRING", "temp_f": NaN, "ph": 2.0, "location": "TANANA (D-2) 15", "usgs_quad": NaN}}, {"type": "Feature", "geometry": {"type": "Point", "coordinates": [-146.027, 69.627]}, "properties": {"spring_name": "RED HILL SPRING", "temp_f": NaN, "ph": 1.0, "location": "MT. MICHELSON (C-4)", "usgs_quad": NaN}}, {"type": "Feature", "geometry": {"type": "Point", "coordinates": [-155.067, 67.283]}, "properties": {"spring_name": "REED RIVER HOT SPRING", "temp_f": NaN, "ph": 1.0, "location": NaN, "usgs_quad": NaN}}, {"type": "Feature", "geometry": {"type": "Point", "coordinates": [-164.71, 65.858]}, "properties": {"spring_name": "SERPENTINE HOT SPRINGS", "temp_f": NaN, "ph": 1.0, "location": "BENDELEBEN (D-6) 15", "usgs_quad": NaN}}, {"type": "Feature", "geometry": {"type": "Point", "coordinates": [-132.18, 56.58]}, "properties": {"spring_name": "SOUTH STIKINE SPRING", "temp_f": NaN, "ph": 3.0, "location": "(PETERSBURG (C-1) 15)", "usgs_quad": NaN}}, {"type": "Feature", "geometry": {"type": "Point", "coordinates": [-158.12, 56.928]}, "properties": {"spring_name": "SURPRISE LAKE HOT SPRING", "temp_f": NaN, "ph": 1.0, "location": "(CHIGNIK (D-1) 15)", "usgs_quad": NaN}}, {"type": "Feature", "geometry": {"type": "Point", "coordinates": [-135.217, 57.781]}, "properties": {"spring_name": "TENAKEE HOT SPRINGS", "temp_f": NaN, "ph": 1.0, "location": "SITKA (D-4) 15", "usgs_quad": NaN}}, {"type": "Feature", "geometry": {"type": "Point", "coordinates": [-168.092, 53.443]}, "properties": {"spring_name": "THERMAL SPRINGS IN OKMOK CALDERA", "temp_f": NaN, "ph": 2.0, "location": NaN, "usgs_quad": NaN}}, {"type": "Feature", "geometry": {"type": "Point", "coordinates": [-148.847, 65.274]}, "properties": {"spring_name": "TOLOVANA HOT SPRINGS", "temp_f": NaN, "ph": 1.0, "location": "LIVENGOOD (B-4) 15", "usgs_quad": NaN}}, {"type": "Feature", "geometry": {"type": "Point", "coordinates": [-154.006, 66.197]}, "properties": {"spring_name": "TUNALKTEN LAKE HOT SPRING", "temp_f": NaN, "ph": 1.0, "location": "HUGHES (A-3) 15", "usgs_quad": NaN}}, {"type": "Feature", "geometry": {"type": "Point", "coordinates": [-132.28, 56.667]}, "properties": {"spring_name": "TWIN LAKES HOT SPRINGS", "temp_f": NaN, "ph": 2.0, "location": "(PETERSBURG (C-1) 15)", "usgs_quad": NaN}}, {"type": "Feature", "geometry": {"type": "Point", "coordinates": [-145.007, 62.081]}, "properties": {"spring_name": "UPPER KLAWASI WARM SPRINGS", "temp_f": NaN, "ph": 1.0, "location": "GULKANA (A-3) 15", "usgs_quad": NaN}}, {"type": "Feature", "geometry": {"type": "Point", "coordinates": [-156.513, 57.831]}, "properties": {"spring_name": "W UKINEK SPRING", "temp_f": NaN, "ph": 2.0, "location": "(UGASHIK (D-2) 15)", "usgs_quad": NaN}}, {"type": "Feature", "geometry": {"type": "Point", "coordinates": [-157.517, 66.383]}, "properties": {"spring_name": "WARM SPRING NEAR PURCELL MOUNTAIN", "temp_f": NaN, "ph": 1.0, "location": NaN, "usgs_quad": NaN}}, {"type": "Feature", "geometry": {"type": "Point", "coordinates": [-136.341, 57.807]}, "properties": {"spring_name": "WHITE SULPHUR SPRINGS (HOONIAH H S)", "temp_f": NaN, "ph": 1.0, "location": "SITKA (D-8) 15", "usgs_quad": NaN}}, {"type": "Feature", "geometry": {"type": "Point", "coordinates": [-93.024, 34.542]}, "properties": {"spring_name": "BIG CHALYBEATE SPRING", "temp_f": NaN, "ph": 1.0, "location": "HOT SPRINGS NORTH 7.5", "usgs_quad": NaN}}, {"type": "Feature", "geometry": {"type": "Point", "coordinates": [-93.607, 34.384]}, "properties": {"spring_name": "CADDO GAP SPRINGS", "temp_f": NaN, "ph": 4.0, "location": "(GLENWOOD 15)", "usgs_quad": NaN}}, {"type": "Feature", "geometry": {"type": "Point", "coordinates": [-93.053, 34.513]}, "properties": {"spring_name": "HOT SPRINGS", "temp_f": NaN, "ph": 2.0, "location": "HOT SPRINGS NORTH 7.5", "usgs_quad": NaN}}, {"type": "Feature", "geometry": {"type": "Point", "coordinates": [-93.908, 34.406]}, "properties": {"spring_name": "SPRING ON LITTLE MISSOURI RIVER", "temp_f": NaN, "ph": 3.0, "location": "(ATHENS 15)", "usgs_quad": NaN}}, {"type": "Feature", "geometry": {"type": "Point", "coordinates": [-93.739, 34.321]}, "properties": {"spring_name": "SPRING ON REDLAND MOUNTAIN", "temp_f": NaN, "ph": 5.0, "location": "(GLENWOOD 15)", "usgs_quad": NaN}}, {"type": "Feature", "geometry": {"type": "Point", "coordinates": [-91.053, 36.48]}, "properties": {"spring_name": "WARM SPRINGS", "temp_f": NaN, "ph": 1.0, "location": "WARM SPRINGS 7.5", "usgs_quad": NaN}}, {"type": "Feature", "geometry": {"type": "Point", "coordinates": [-110.73, 32.281]}, "properties": {"spring_name": "AGUA CALIENTE", "temp_f": NaN, "ph": 6.0, "location": "BELLOTA RANCH 15", "usgs_quad": NaN}}, {"type": "Feature", "geometry": {"type": "Point", "coordinates": [-110.963, 31.695]}, "properties": {"spring_name": "AGUA CALIENTE SPRING", "temp_f": NaN, "ph": 1.0, "location": "MOUNT WRIGHTSON 15", "usgs_quad": NaN}}, {"type": "Feature", "geometry": {"type": "Point", "coordinates": [-113.324, 32.984]}, "properties": {"spring_name": "AGUA CALIENTE SPRINGS", "temp_f": NaN, "ph": 1.0, "location": "AGUA CALIENTE 7.5", "usgs_quad": NaN}}, {"type": "Feature", "geometry": {"type": "Point", "coordinates": [-109.902, 31.673]}, "properties": {"spring_name": "ANTELOPE SPRING", "temp_f": NaN, "ph": 1.0, "location": "HAY MOUNTAIN 7.5", "usgs_quad": NaN}}, {"type": "Feature", "geometry": {"type": "Point", "coordinates": [-109.265, 31.362]}, "properties": {"spring_name": "ASTIN SPRING", "temp_f": NaN, "ph": 3.0, "location": "COLLEGE PEAKS 15", "usgs_quad": NaN}}, {"type": "Feature", "geometry": {"type": "Point", "coordinates": [-114.221, 34.925]}, "properties": {"spring_name": "CALICHE SPRING", "temp_f": NaN, "ph": 1.0, "location": "YUCCA NW 7.5", "usgs_quad": NaN}}, {"type": "Feature", "geometry": {"type": "Point", "coordinates": [-113.425, 35.213]}, "properties": {"spring_name": "CASA GRANDE SPRING", "temp_f": NaN, "ph": 1.0, "location": NaN, "usgs_quad": NaN}}, {"type": "Feature", "geometry": {"type": "Point", "coordinates": [-110.403, 33.51]}, "properties": {"spring_name": "CASSADORE SPRING", "temp_f": NaN, "ph": 4.0, "location": "CASSADORE SPRING 7.5", "usgs_quad": NaN}}, {"type": "Feature", "geometry": {"type": "Point", "coordinates": [-112.362, 33.988]}, "properties": {"spring_name": "CASTLE HOT SPRINGS", "temp_f": NaN, "ph": 1.0, "location": "GOVERNORS PEAK 7.5", "usgs_quad": NaN}}, {"type": "Feature", "geometry": {"type": "Point", "coordinates": [-109.295, 33.055]}, "properties": {"spring_name": "CLIFTON HOT SPRINGS", "temp_f": NaN, "ph": 6.0, "location": "(CLIFTON 15)", "usgs_quad": NaN}}, {"type": "Feature", "geometry": {"type": "Point", "coordinates": [-113.572, 34.695]}, "properties": {"spring_name": "COFER HOT SPRING", "temp_f": NaN, "ph": 2.0, "location": "WIKIEUP 7.5", "usgs_quad": NaN}}, {"type": "Feature", "geometry": {"type": "Point", "coordinates": [-111.852, 36.509]}, "properties": {"spring_name": "COLORADO POOL", "temp_f": NaN, "ph": 1.0, "location": "(EMMETT WASH 15)", "usgs_quad": NaN}}, {"type": "Feature", "geometry": {"type": "Point", "coordinates": [-110.528, 33.17]}, "properties": {"spring_name": "COOLIDGE DAM WARM SPRING", "temp_f": NaN, "ph": 9.0, "location": "COOLIDGE DAM 7.5", "usgs_quad": NaN}}, {"type": "Feature", "geometry": {"type": "Point", "coordinates": [-109.44, 33.046]}, "properties": {"spring_name": "EAGLE CREEK HOT SPRINGS", "temp_f": NaN, "ph": 7.0, "location": "CLIFTON 15", "usgs_quad": NaN}}, {"type": "Feature", "geometry": {"type": "Point", "coordinates": [-113.851, 35.169]}, "properties": {"spring_name": "FROST MINE SPRING", "temp_f": NaN, "ph": 2.0, "location": "(HUALAPAI PEAK NE 7.5)", "usgs_quad": NaN}}, {"type": "Feature", "geometry": {"type": "Point", "coordinates": [-109.35, 32.971]}, "properties": {"spring_name": "GILLARD HOT SPRINGS", "temp_f": NaN, "ph": 2.0, "location": "GUTHRIE 15", "usgs_quad": NaN}}, {"type": "Feature", "geometry": {"type": "Point", "coordinates": [-109.778, 33.008]}, "properties": {"spring_name": "GRAPEVINE SPRING", "temp_f": NaN, "ph": 8.0, "location": "(FORT THOMAS 15)", "usgs_quad": NaN}}, {"type": "Feature", "geometry": {"type": "Point", "coordinates": [-109.152, 33.4]}, "properties": {"spring_name": "HANNAH HOT SPRING", "temp_f": NaN, "ph": 1.0, "location": "DUTCH BLUE CREEK 7.5", "usgs_quad": NaN}}, {"type": "Feature", "geometry": {"type": "Point", "coordinates": [-110.24, 32.336]}, "properties": {"spring_name": "HOOKERS HOT SPRINGS", "temp_f": NaN, "ph": 4.0, "location": "WINCHESTER MTS. 15", "usgs_quad": NaN}}, {"type": "Feature", "geometry": {"type": "Point", "coordinates": [-114.742, 35.984]}, "properties": {"spring_name": "HOT SPRING", "temp_f": NaN, "ph": 1.0, "location": "RINGBOLT RAPIDS 7.5", "usgs_quad": NaN}}, {"type": "Feature", "geometry": {"type": "Point", "coordinates": [-109.303, 33.08]}, "properties": {"spring_name": "HOT SPRING", "temp_f": NaN, "ph": 2.0, "location": "CLIFTON 15", "usgs_quad": NaN}}, {"type": "Feature", "geometry": {"type": "Point", "coordinates": [-114.725, 35.96]}, "properties": {"spring_name": "HOT SPRING", "temp_f": NaN, "ph": 2.0, "location": "RINGBOLT RAPIDS 7.5", "usgs_quad": NaN}}, {"type": "Feature", "geometry": {"type": "Point", "coordinates": [-109.901, 32.998]}, "properties": {"spring_name": "INDIAN HOT SPRINGS", "temp_f": NaN, "ph": 1.0, "location": "THATCHER 15", "usgs_quad": NaN}}, {"type": "Feature", "geometry": {"type": "Point", "coordinates": [-113.497, 34.563]}, "properties": {"spring_name": "KAISER HOT SPRING", "temp_f": NaN, "ph": 3.0, "location": NaN, "usgs_quad": NaN}}, {"type": "Feature", "geometry": {"type": "Point", "coordinates": [-113.081, 36.196]}, "properties": {"spring_name": "LAVA WARM SPRINGS", "temp_f": NaN, "ph": 3.0, "location": "VULCANS THRONE 7.5", "usgs_quad": NaN}}, {"type": "Feature", "geometry": {"type": "Point", "coordinates": [-109.51, 31.592]}, "properties": {"spring_name": "LEWIS SPRING", "temp_f": NaN, "ph": 2.0, "location": "(SWISSHELM MTN. 15)", "usgs_quad": NaN}}, {"type": "Feature", "geometry": {"type": "Point", "coordinates": [-110.708, 32.337]}, "properties": {"spring_name": "MERCER SPRING", "temp_f": NaN, "ph": 3.0, "location": "BELLOTA RANCH 15", "usgs_quad": NaN}}, {"type": "Feature", "geometry": {"type": "Point", "coordinates": [-110.639, 33.152]}, "properties": {"spring_name": "MESCAL WARM SPRING", "temp_f": NaN, "ph": 11.0, "location": "MESCAL WARM SPRING 7.5", "usgs_quad": NaN}}, {"type": "Feature", "geometry": {"type": "Point", "coordinates": [-112.332, 33.915]}, "properties": {"spring_name": "MITCHELL SPRING", "temp_f": NaN, "ph": 2.0, "location": "GOVERNORS PEAK 7.5", "usgs_quad": NaN}}, {"type": "Feature", "geometry": {"type": "Point", "coordinates": [-110.703, 31.637]}, "properties": {"spring_name": "MONKEY SPRING", "temp_f": NaN, "ph": 2.0, "location": "SONOITA 7.5", "usgs_quad": NaN}}, {"type": "Feature", "geometry": {"type": "Point", "coordinates": [-110.228, 32.327]}, "properties": {"spring_name": "N-O SPRING", "temp_f": NaN, "ph": 5.0, "location": "WINCHESTER MTS. 15", "usgs_quad": NaN}}, {"type": "Feature", "geometry": {"type": "Point", "coordinates": [-114.308, 34.896]}, "properties": {"spring_name": "OATMAN WARM SPRINGS", "temp_f": NaN, "ph": 2.0, "location": "WARM SPRINGS 7.5", "usgs_quad": NaN}}, {"type": "Feature", "geometry": {"type": "Point", "coordinates": [-113.956, 36.418]}, "properties": {"spring_name": "PAKOON SPRINGS", "temp_f": NaN, "ph": 2.0, "location": "PAKOON SPRINGS 7.5", "usgs_quad": NaN}}, {"type": "Feature", "geometry": {"type": "Point", "coordinates": [-110.818, 33.209]}, "properties": {"spring_name": "PIONEER SPRING", "temp_f": NaN, "ph": 7.0, "location": "(EL CAPITAN MTN. 7.5)", "usgs_quad": NaN}}, {"type": "Feature", "geometry": {"type": "Point", "coordinates": [-113.013, 31.943]}, "properties": {"spring_name": "QUITOBAQUITO SPRINGS", "temp_f": NaN, "ph": 1.0, "location": "QUITOBAQUITO SPRINGS 15", "usgs_quad": NaN}}, {"type": "Feature", "geometry": {"type": "Point", "coordinates": [-114.068, 32.741]}, "properties": {"spring_name": "RADIUM HOT SPRINGS", "temp_f": NaN, "ph": 1.0, "location": "WELLTON MESA 7.5", "usgs_quad": NaN}}, {"type": "Feature", "geometry": {"type": "Point", "coordinates": [-111.165, 33.669]}, "properties": {"spring_name": "ROOSEVELT DAM SPRINGS", "temp_f": NaN, "ph": 1.0, "location": "THEODORE ROOSEVELT DAM 7.5", "usgs_quad": NaN}}, {"type": "Feature", "geometry": {"type": "Point", "coordinates": [-109.402, 34.436]}, "properties": {"spring_name": "SALADO SPRINGS", "temp_f": NaN, "ph": 1.0, "location": "SALADO 7.5", "usgs_quad": NaN}}, {"type": "Feature", "geometry": {"type": "Point", "coordinates": [-110.574, 33.831]}, "properties": {"spring_name": "SALT BANKS", "temp_f": NaN, "ph": 1.0, "location": "(BLUE HOUSE MTN. 15)", "usgs_quad": NaN}}, {"type": "Feature", "geometry": {"type": "Point", "coordinates": [-109.298, 33.075]}, "properties": {"spring_name": "SEEP", "temp_f": NaN, "ph": 3.0, "location": "(CLIFTON 15)", "usgs_quad": NaN}}, {"type": "Feature", "geometry": {"type": "Point", "coordinates": [-111.744, 34.649]}, "properties": {"spring_name": "SODA SPRING", "temp_f": NaN, "ph": 1.0, "location": "CASNER BUTTE 7.5", "usgs_quad": NaN}}, {"type": "Feature", "geometry": {"type": "Point", "coordinates": [-111.602, 34.405]}, "properties": {"spring_name": "SPRING", "temp_f": NaN, "ph": 2.0, "location": "STRAWBERRY 7.5", "usgs_quad": NaN}}, {"type": "Feature", "geometry": {"type": "Point", "coordinates": [-110.703, 33.253]}, "properties": {"spring_name": "SPRING", "temp_f": NaN, "ph": 6.0, "location": "(CUTTER 7.5)", "usgs_quad": NaN}}, {"type": "Feature", "geometry": {"type": "Point", "coordinates": [-110.662, 33.163]}, "properties": {"spring_name": "SPRING", "temp_f": NaN, "ph": 10.0, "location": "MESCAL WARM SPRING 7.5", "usgs_quad": NaN}}, {"type": "Feature", "geometry": {"type": "Point", "coordinates": [-112.693, 34.445]}, "properties": {"spring_name": "SPRING", "temp_f": NaN, "ph": 1.0, "location": "KIRKLAND 7.5", "usgs_quad": NaN}}, {"type": "Feature", "geometry": {"type": "Point", "coordinates": [-111.708, 34.076]}, "properties": {"spring_name": "SPRING (HOT)", "temp_f": NaN, "ph": 5.0, "location": "CHALK MOUNTAIN 7.5", "usgs_quad": NaN}}, {"type": "Feature", "geometry": {"type": "Point", "coordinates": [-113.913, 36.895]}, "properties": {"spring_name": "SPRINGS", "temp_f": NaN, "ph": 1.0, "location": "LITTLEFIELD 15", "usgs_quad": NaN}}, {"type": "Feature", "geometry": {"type": "Point", "coordinates": [-113.608, 34.91]}, "properties": {"spring_name": "TOM BROWN WARM SPRING", "temp_f": NaN, "ph": 1.0, "location": "TOM BROWN CANYON 7.5", "usgs_quad": NaN}}, {"type": "Feature", "geometry": {"type": "Point", "coordinates": [-111.453, 34.32]}, "properties": {"spring_name": "TONTO NATURAL BRIDGE SPRING", "temp_f": NaN, "ph": 4.0, "location": "BUCKHEAD MESA 7.5", "usgs_quad": NaN}}, {"type": "Feature", "geometry": {"type": "Point", "coordinates": [-113.267, 35.077]}, "properties": {"spring_name": "TROUT CREEK SPRING", "temp_f": NaN, "ph": 4.0, "location": NaN, "usgs_quad": NaN}}, {"type": "Feature", "geometry": {"type": "Point", "coordinates": [-111.71, 34.357]}, "properties": {"spring_name": "VERDE HOT SPRINGS", "temp_f": NaN, "ph": 3.0, "location": "VERDE HOT SPRINGS 7.5", "usgs_quad": NaN}}, {"type": "Feature", "geometry": {"type": "Point", "coordinates": [-109.975, 33.068]}, "properties": {"spring_name": "WARM SPRING", "temp_f": NaN, "ph": 4.0, "location": "FORT THOMAS 15", "usgs_quad": NaN}}, {"type": "Feature", "geometry": {"type": "Point", "coordinates": [-109.482, 33.062]}, "properties": {"spring_name": "WARM SPRING", "temp_f": NaN, "ph": 5.0, "location": "(CLIFTON 15)", "usgs_quad": NaN}}, {"type": "Feature", "geometry": {"type": "Point", "coordinates": [-110.317, 33.78]}, "properties": {"spring_name": "WARM SPRING", "temp_f": NaN, "ph": 2.0, "location": "CARRIZO SE 7.5", "usgs_quad": NaN}}, {"type": "Feature", "geometry": {"type": "Point", "coordinates": [-110.373, 32.983]}, "properties": {"spring_name": "WARM SPRING", "temp_f": NaN, "ph": 1.0, "location": "COBRE GRANDE MTN. 7.5", "usgs_quad": NaN}}, {"type": "Feature", "geometry": {"type": "Point", "coordinates": [-110.247, 32.345]}, "properties": {"spring_name": "WARM SPRINGS", "temp_f": NaN, "ph": 2.0, "location": "(WINCHESTER MTS. 15)", "usgs_quad": NaN}}, {"type": "Feature", "geometry": {"type": "Point", "coordinates": [-110.213, 33.438]}, "properties": {"spring_name": "WARM SPRINGS", "temp_f": NaN, "ph": 5.0, "location": "BRONCO GULCH 7.5", "usgs_quad": NaN}}, {"type": "Feature", "geometry": {"type": "Point", "coordinates": [-122.444, 39.022]}, "properties": {"spring_name": "ABBOTT MINE", "temp_f": NaN, "ph": 15.0, "location": "WILBUR SPRINGS 15", "usgs_quad": NaN}}, {"type": "Feature", "geometry": {"type": "Point", "coordinates": [-122.484, 38.654]}, "properties": {"spring_name": "AETNA SPRINGS", "temp_f": NaN, "ph": 29.0, "location": "AETNA SPRINGS 7.5", "usgs_quad": NaN}}, {"type": "Feature", "geometry": {"type": "Point", "coordinates": [-119.56, 34.538]}, "properties": {"spring_name": "AGUA CALIENTE SPRING", "temp_f": NaN, "ph": 2.0, "location": "HILDRETH PEAK 7.5", "usgs_quad": NaN}}, {"type": "Feature", "geometry": {"type": "Point", "coordinates": [-116.305, 32.947]}, "properties": {"spring_name": "AGUA CALIENTE SPRINGS", "temp_f": NaN, "ph": 2.0, "location": "AGUA CALIENTE 7.5", "usgs_quad": NaN}}, {"type": "Feature", "geometry": {"type": "Point", "coordinates": [-117.017, 33.363]}, "properties": {"spring_name": "AGUA TIBIA SPRING", "temp_f": NaN, "ph": 12.0, "location": "(PALA 7.5)", "usgs_quad": NaN}}, {"type": "Feature", "geometry": {"type": "Point", "coordinates": [-121.904, 37.503]}, "properties": {"spring_name": "ALAMEDA WARM SPRINGS", "temp_f": NaN, "ph": 6.0, "location": "NILES 7.5", "usgs_quad": NaN}}, {"type": "Feature", "geometry": {"type": "Point", "coordinates": [-120.195, 40.302]}, "properties": {"spring_name": "AMEDEE HOT SPRINGS", "temp_f": NaN, "ph": 5.0, "location": "WENDEL 15", "usgs_quad": NaN}}, {"type": "Feature", "geometry": {"type": "Point", "coordinates": [-122.705, 38.773]}, "properties": {"spring_name": "ANDERSON SPRINGS", "temp_f": NaN, "ph": 25.0, "location": "WHISPERING PINES 7.5", "usgs_quad": NaN}}, {"type": "Feature", "geometry": {"type": "Point", "coordinates": [-117.262, 34.185]}, "properties": {"spring_name": "ARROWHEAD SPRINGS, WATERMAN HOT SPR", "temp_f": NaN, "ph": 3.0, "location": "SAN BERNARDINO NORTH 7.5", "usgs_quad": NaN}}, {"type": "Feature", "geometry": {"type": "Point", "coordinates": [-122.667, 38.85]}, "properties": {"spring_name": "BAD CREEK SPRING", "temp_f": NaN, "ph": 17.0, "location": "(WHISPERING PINES 7.5)", "usgs_quad": NaN}}, {"type": "Feature", "geometry": {"type": "Point", "coordinates": [-117.38, 35.842]}, "properties": {"spring_name": "BAINTER SPRING", "temp_f": NaN, "ph": 2.0, "location": "TRONA 15", "usgs_quad": NaN}}, {"type": "Feature", "geometry": {"type": "Point", "coordinates": [-122.533, 38.892]}, "properties": {"spring_name": "BAKER SODA SPRING", "temp_f": NaN, "ph": 13.0, "location": "LOWER LAKE 7.5", "usgs_quad": NaN}}, {"type": "Feature", "geometry": {"type": "Point", "coordinates": [-120.032, 41.167]}, "properties": {"spring_name": "BARE RANCH SPRING", "temp_f": NaN, "ph": 20.0, "location": "(SNAKE LAKE 7.5)", "usgs_quad": NaN}}, {"type": "Feature", "geometry": {"type": "Point", "coordinates": [-122.7, 39.183]}, "properties": {"spring_name": "BARTLETT SPRINGS", "temp_f": NaN, "ph": 7.0, "location": "CLEARLAKE OAKS 15", "usgs_quad": NaN}}, {"type": "Feature", "geometry": {"type": "Point", "coordinates": [-121.11, 41.143]}, "properties": {"spring_name": "BASSETT HOT SPRINGS", "temp_f": NaN, "ph": 3.0, "location": "BIEBER 15", "usgs_quad": NaN}}, {"type": "Feature", "geometry": {"type": "Point", "coordinates": [-118.532, 37.802]}, "properties": {"spring_name": "BENTON HOT SPRINGS", "temp_f": NaN, "ph": 2.0, "location": "GLASS MOUNTAIN 15", "usgs_quad": NaN}}, {"type": "Feature", "geometry": {"type": "Point", "coordinates": [-118.487, 37.888]}, "properties": {"spring_name": "BERTRAND RANCH SPRINGS", "temp_f": NaN, "ph": 1.0, "location": "BENTON 15", "usgs_quad": NaN}}, {"type": "Feature", "geometry": {"type": "Point", "coordinates": [-121.924, 41.025]}, "properties": {"spring_name": "BIG BEND HOT SPRINGS", "temp_f": NaN, "ph": 6.0, "location": "BIG BEND 15", "usgs_quad": NaN}}, {"type": "Feature", "geometry": {"type": "Point", "coordinates": [-122.787, 39.006]}, "properties": {"spring_name": "BIG SODA SPRING", "temp_f": NaN, "ph": 16.0, "location": "LUCERNE 7.5", "usgs_quad": NaN}}, {"type": "Feature", "geometry": {"type": "Point", "coordinates": [-118.881, 37.234]}, "properties": {"spring_name": "BLANEY MEADOWS HOT SPRINGS", "temp_f": NaN, "ph": 23.0, "location": "BLACKCAP MTN. 15", "usgs_quad": NaN}}, {"type": "Feature", "geometry": {"type": "Point", "coordinates": [-122.432, 39.032]}, "properties": {"spring_name": "BLANK SPRING, MANZANITA MINE SPRS", "temp_f": NaN, "ph": 13.0, "location": "WILBUR SPRINGS 15", "usgs_quad": NaN}}, {"type": "Feature", "geometry": {"type": "Point", "coordinates": [-122.369, 41.919]}, "properties": {"spring_name": "BOGUS SODA SPRINGS", "temp_f": NaN, "ph": 2.0, "location": "COPCO 15", "usgs_quad": NaN}}, {"type": "Feature", "geometry": {"type": "Point", "coordinates": [-121.399, 40.434]}, "properties": {"spring_name": "BOILING SPRINGS LAKE", "temp_f": NaN, "ph": 7.0, "location": "MT. HARKNESS 15", "usgs_quad": NaN}}, {"type": "Feature", "geometry": {"type": "Point", "coordinates": [-119.538, 34.423]}, "properties": {"spring_name": "BORON SPRING", "temp_f": NaN, "ph": 11.0, "location": "(CARPINTERIA 7.5)", "usgs_quad": NaN}}, {"type": "Feature", "geometry": {"type": "Point", "coordinates": [-120.01, 39.226]}, "properties": {"spring_name": "BROCKWAY HOT SPRINGS", "temp_f": NaN, "ph": 5.0, "location": "(KINGS BEACH 7.5)", "usgs_quad": NaN}}, {"type": "Feature", "geometry": {"type": "Point", "coordinates": [-119.326, 38.237]}, "properties": {"spring_name": "BUCKEYE HOT SPRING", "temp_f": NaN, "ph": 6.0, "location": "MATTERHORN PEAK 15", "usgs_quad": NaN}}, {"type": "Feature", "geometry": {"type": "Point", "coordinates": [-121.501, 40.455]}, "properties": {"spring_name": "BUMPASS HELL", "temp_f": NaN, "ph": 2.0, "location": "LASSEN PEAK 15", "usgs_quad": NaN}}, {"type": "Feature", "geometry": {"type": "Point", "coordinates": [-121.635, 37.847]}, "properties": {"spring_name": "BYRON HOT SPRINGS", "temp_f": NaN, "ph": 3.0, "location": "BYRON HOT SPRINGS 7.5", "usgs_quad": NaN}}, {"type": "Feature", "geometry": {"type": "Point", "coordinates": [-118.67, 35.881]}, "properties": {"spring_name": "CALIFORNIA HOT SPRINGS", "temp_f": NaN, "ph": 1.0, "location": "CALIFORNIA HOT SPRINGS 15", "usgs_quad": NaN}}, {"type": "Feature", "geometry": {"type": "Point", "coordinates": [-122.575, 38.58]}, "properties": {"spring_name": "CALISTOGA HOT SPRINGS", "temp_f": NaN, "ph": 30.0, "location": "CALISTOGA 7.5", "usgs_quad": NaN}}, {"type": "Feature", "geometry": {"type": "Point", "coordinates": [-120.25, 35.4]}, "properties": {"spring_name": "CAMETA WARM SPRING", "temp_f": NaN, "ph": 5.0, "location": "(LA PANZA RANCH 7.5)", "usgs_quad": NaN}}, {"type": "Feature", "geometry": {"type": "Point", "coordinates": [-120.348, 39.573]}, "properties": {"spring_name": "CAMPBELL HOT SPRINGS", "temp_f": NaN, "ph": 4.0, "location": "SIERRAVILLE 15", "usgs_quad": NaN}}, {"type": "Feature", "geometry": {"type": "Point", "coordinates": [-115.654, 33.545]}, "properties": {"spring_name": "CANYON SPRING", "temp_f": NaN, "ph": 2.0, "location": "HAYFIELD 15", "usgs_quad": NaN}}, {"type": "Feature", "geometry": {"type": "Point", "coordinates": [-122.799, 38.916]}, "properties": {"spring_name": "CARLSBAD SPRING", "temp_f": NaN, "ph": 11.0, "location": "KELSEYVILLE 7.5", "usgs_quad": NaN}}, {"type": "Feature", "geometry": {"type": "Point", "coordinates": [-119.846, 35.439]}, "properties": {"spring_name": "CARNEROS SPRING", "temp_f": NaN, "ph": 2.0, "location": "CARNEROS ROCKS 7.5", "usgs_quad": NaN}}, {"type": "Feature", "geometry": {"type": "Point", "coordinates": [-118.859, 37.647]}, "properties": {"spring_name": "CASA DIABLO HOT POOL", "temp_f": NaN, "ph": 15.0, "location": "MT. MORRISON 15", "usgs_quad": NaN}}, {"type": "Feature", "geometry": {"type": "Point", "coordinates": [-118.914, 37.648]}, "properties": {"spring_name": "CASA DIABLO HOT SPRINGS AND GEYSER", "temp_f": NaN, "ph": 13.0, "location": "MT. MORRISON 15", "usgs_quad": NaN}}, {"type": "Feature", "geometry": {"type": "Point", "coordinates": [-122.717, 38.768]}, "properties": {"spring_name": "CASTLE ROCK SPRINGS", "temp_f": NaN, "ph": 26.0, "location": "WHISPERING PINES 7.5", "usgs_quad": NaN}}, {"type": "Feature", "geometry": {"type": "Point", "coordinates": [-118.887, 37.638]}, "properties": {"spring_name": "CHANCE SPRING", "temp_f": NaN, "ph": 17.0, "location": "(MT. MORRISON 15)", "usgs_quad": NaN}}, {"type": "Feature", "geometry": {"type": "Point", "coordinates": [-116.189, 35.946]}, "properties": {"spring_name": "CHAPPO SPRING", "temp_f": NaN, "ph": 3.0, "location": "TECOPA 15", "usgs_quad": NaN}}, {"type": "Feature", "geometry": {"type": "Point", "coordinates": [-120.555, 36.144]}, "properties": {"spring_name": "COALINGA MINERAL SPRINGS", "temp_f": NaN, "ph": 6.0, "location": "SHERMAN PEAK 7.5", "usgs_quad": NaN}}, {"type": "Feature", "geometry": {"type": "Point", "coordinates": [-115.325, 33.625]}, "properties": {"spring_name": "CORN SPRING", "temp_f": NaN, "ph": 1.0, "location": "CHUCKWALLA MOUNTAINS 15", "usgs_quad": NaN}}, {"type": "Feature", "geometry": {"type": "Point", "coordinates": [-117.769, 36.045]}, "properties": {"spring_name": "COSO HOT SPRINGS", "temp_f": NaN, "ph": 8.0, "location": "HAIWEE RESERVOIR 15", "usgs_quad": NaN}}, {"type": "Feature", "geometry": {"type": "Point", "coordinates": [-122.821, 39.292]}, "properties": {"spring_name": "CRABTREE HOT SPRINGS", "temp_f": NaN, "ph": 3.0, "location": "POTATO HILL 7.5", "usgs_quad": NaN}}, {"type": "Feature", "geometry": {"type": "Point", "coordinates": [-121.762, 37.632]}, "properties": {"spring_name": "CROHARE SPRING", "temp_f": NaN, "ph": 4.0, "location": "(LIVERMORE 7.5)", "usgs_quad": NaN}}, {"type": "Feature", "geometry": {"type": "Point", "coordinates": [-122.642, 38.995]}, "properties": {"spring_name": "DAVIS SODA SPRING", "temp_f": NaN, "ph": 1.0, "location": "(CLEARLAKE HIGHLANDS 7.5)", "usgs_quad": NaN}}, {"type": "Feature", "geometry": {"type": "Point", "coordinates": [-117.324, 33.436]}, "properties": {"spring_name": "DE LUZ WARM SPRINGS", "temp_f": NaN, "ph": 11.0, "location": "(FALLBROOK 7.5)", "usgs_quad": NaN}}, {"type": "Feature", "geometry": {"type": "Point", "coordinates": [-118.79, 37.677]}, "properties": {"spring_name": "DEHY HOT SPRING", "temp_f": NaN, "ph": 6.0, "location": "(MT. MORRISON 15)", "usgs_quad": NaN}}, {"type": "Feature", "geometry": {"type": "Point", "coordinates": [-118.612, 35.558]}, "properties": {"spring_name": "DELONEGHA HOT SPRINGS", "temp_f": NaN, "ph": 5.0, "location": "MIRACLE HOT SPRINGS", "usgs_quad": NaN}}, {"type": "Feature", "geometry": {"type": "Point", "coordinates": [-118.665, 35.528]}, "properties": {"spring_name": "DEMOCRAT HOT SPRINGS", "temp_f": NaN, "ph": 7.0, "location": "DEMOCRAT HOT SPRINGS 7.5", "usgs_quad": NaN}}, {"type": "Feature", "geometry": {"type": "Point", "coordinates": [-117.802, 36.036]}, "properties": {"spring_name": "DEVILS KITCHEN", "temp_f": NaN, "ph": 9.0, "location": "HAIWEE RESERVOIR 15", "usgs_quad": NaN}}, {"type": "Feature", "geometry": {"type": "Point", "coordinates": [-121.434, 40.44]}, "properties": {"spring_name": "DEVILS KITCHEN", "temp_f": NaN, "ph": 5.0, "location": "MT. HARKNESS 15", "usgs_quad": NaN}}, {"type": "Feature", "geometry": {"type": "Point", "coordinates": [-117.948, 36.33]}, "properties": {"spring_name": "DIRTY SOCKS HOT SPRING", "temp_f": NaN, "ph": 6.0, "location": "KEELER 15", "usgs_quad": NaN}}, {"type": "Feature", "geometry": {"type": "Point", "coordinates": [-121.584, 36.084]}, "properties": {"spring_name": "DOLANS HOT SPRING", "temp_f": NaN, "ph": 8.0, "location": "LOPEZ POINT 7.5", "usgs_quad": NaN}}, {"type": "Feature", "geometry": {"type": "Point", "coordinates": [-115.827, 33.512]}, "properties": {"spring_name": "DOS PALMAS SPRING", "temp_f": NaN, "ph": 3.0, "location": "OROCOPIA CANYON 7.5", "usgs_quad": NaN}}, {"type": "Feature", "geometry": {"type": "Point", "coordinates": [-121.409, 40.444]}, "properties": {"spring_name": "DRAKESBAD", "temp_f": NaN, "ph": 4.0, "location": "MT. HARKNESS 15", "usgs_quad": NaN}}, {"type": "Feature", "geometry": {"type": "Point", "coordinates": [-117.057, 33.896]}, "properties": {"spring_name": "EDEN HOT SPRINGS", "temp_f": NaN, "ph": 1.0, "location": "EL CASCO 7.5", "usgs_quad": NaN}}, {"type": "Feature", "geometry": {"type": "Point", "coordinates": [-118.499, 34.159]}, "properties": {"spring_name": "EL ENCINO SPRINGS", "temp_f": NaN, "ph": 3.0, "location": "VAN NUYS 7.5", "usgs_quad": NaN}}, {"type": "Feature", "geometry": {"type": "Point", "coordinates": [-122.475, 39.057]}, "properties": {"spring_name": "ELGIN MINE", "temp_f": NaN, "ph": 9.0, "location": "WILBUR SPRINGS 15", "usgs_quad": NaN}}, {"type": "Feature", "geometry": {"type": "Point", "coordinates": [-122.882, 38.897]}, "properties": {"spring_name": "ENGLAND SPRINGS", "temp_f": NaN, "ph": 12.0, "location": "(HIGHLAND SPRINGS 7.5)", "usgs_quad": NaN}}, {"type": "Feature", "geometry": {"type": "Point", "coordinates": [-120.7, 41.492]}, "properties": {"spring_name": "ESSEX SPRINGS", "temp_f": NaN, "ph": 9.0, "location": "ALTURAS 15", "usgs_quad": NaN}}, {"type": "Feature", "geometry": {"type": "Point", "coordinates": [-117.913, 33.664]}, "properties": {"spring_name": "FAIRVIEW HOT SPRING", "temp_f": NaN, "ph": 6.0, "location": "(NEWPORT BEACH 7.5)", "usgs_quad": NaN}}, {"type": "Feature", "geometry": {"type": "Point", "coordinates": [-119.4, 38.348]}, "properties": {"spring_name": "FALES HOT SPRINGS", "temp_f": NaN, "ph": 4.0, "location": "FALES HOT SPRINGS 7.5", "usgs_quad": NaN}}, {"type": "Feature", "geometry": {"type": "Point", "coordinates": [-119.025, 37.532]}, "properties": {"spring_name": "FISH CREEK HOT SPRINGS", "temp_f": NaN, "ph": 7.0, "location": "DEVILS POSTPILE 15", "usgs_quad": NaN}}, {"type": "Feature", "geometry": {"type": "Point", "coordinates": [-116.035, 33.407]}, "properties": {"spring_name": "FISH SPRINGS", "temp_f": NaN, "ph": 6.0, "location": "(OASIS 7.5)", "usgs_quad": NaN}}, {"type": "Feature", "geometry": {"type": "Point", "coordinates": [-120.158, 41.86]}, "properties": {"spring_name": "FORT BIDWELL HOT SPRING", "temp_f": NaN, "ph": 2.0, "location": "FORT BIDWELL 15", "usgs_quad": NaN}}, {"type": "Feature", "geometry": {"type": "Point", "coordinates": [-122.668, 39.348]}, "properties": {"spring_name": "FOUTS SPRINGS", "temp_f": NaN, "ph": 2.0, "location": "FOUTS SPRINGS 7.5", "usgs_quad": NaN}}, {"type": "Feature", "geometry": {"type": "Point", "coordinates": [-117.833, 36.031]}, "properties": {"spring_name": "FUMAROLE", "temp_f": NaN, "ph": 10.0, "location": "HAIWEE RESERVOIR 15", "usgs_quad": NaN}}, {"type": "Feature", "geometry": {"type": "Point", "coordinates": [-122.659, 38.979]}, "properties": {"spring_name": "FUMAROLE", "temp_f": NaN, "ph": 4.0, "location": "(CLEARLAKE HIGHLANDS 7.5)", "usgs_quad": NaN}}, {"type": "Feature", "geometry": {"type": "Point", "coordinates": [-119.028, 37.622]}, "properties": {"spring_name": "FUMAROLES", "temp_f": NaN, "ph": 5.0, "location": "(DEVILS POSTPILE 15)", "usgs_quad": NaN}}, {"type": "Feature", "geometry": {"type": "Point", "coordinates": [-116.988, 33.835]}, "properties": {"spring_name": "GILMAN HOT SPRINGS", "temp_f": NaN, "ph": 2.0, "location": "SAN JACINTO 7.5", "usgs_quad": NaN}}, {"type": "Feature", "geometry": {"type": "Point", "coordinates": [-121.478, 37.108]}, "properties": {"spring_name": "GILROY HOT SPRINGS", "temp_f": NaN, "ph": 9.0, "location": "GILROY HOT SPRINGS 7.5", "usgs_quad": NaN}}, {"type": "Feature", "geometry": {"type": "Point", "coordinates": [-117.495, 33.753]}, "properties": {"spring_name": "GLEN IVY HOT SPRINGS", "temp_f": NaN, "ph": 4.0, "location": "LAKE MATTHEWS 7.5", "usgs_quad": NaN}}, {"type": "Feature", "geometry": {"type": "Point", "coordinates": [-122.731, 38.835]}, "properties": {"spring_name": "GORDON WARM SPRINGS", "temp_f": NaN, "ph": 19.0, "location": "(WHISPERING PINES 7.5)", "usgs_quad": NaN}}, {"type": "Feature", "geometry": {"type": "Point", "coordinates": [-117.383, 37.029]}, "properties": {"spring_name": "GRAPEVINE SPRINGS", "temp_f": NaN, "ph": 1.0, "location": "UBEHEBE CRATER 15", "usgs_quad": NaN}}, {"type": "Feature", "geometry": {"type": "Point", "coordinates": [-122.498, 39.002]}, "properties": {"spring_name": "GRIZZLY SPRING", "temp_f": NaN, "ph": 18.0, "location": "WILBUR SPRINGS 15", "usgs_quad": NaN}}, {"type": "Feature", "geometry": {"type": "Point", "coordinates": [-119.846, 38.699]}, "properties": {"spring_name": "GROVERS HOT SPRINGS", "temp_f": NaN, "ph": 2.0, "location": "MARKLEEVILLE 15", "usgs_quad": NaN}}, {"type": "Feature", "geometry": {"type": "Point", "coordinates": [-121.507, 40.393]}, "properties": {"spring_name": "GROWLER HOT SPRING", "temp_f": NaN, "ph": 9.0, "location": "LASSEN PEAK 15", "usgs_quad": NaN}}, {"type": "Feature", "geometry": {"type": "Point", "coordinates": [-122.655, 38.785]}, "properties": {"spring_name": "HARBIN SPRINGS", "temp_f": NaN, "ph": 23.0, "location": "WHISPERING PINES 7.5", "usgs_quad": NaN}}, {"type": "Feature", "geometry": {"type": "Point", "coordinates": [-120.007, 40.245]}, "properties": {"spring_name": "HIGH ROCK SPRING", "temp_f": NaN, "ph": 6.0, "location": "DOYLE 15", "usgs_quad": NaN}}, {"type": "Feature", "geometry": {"type": "Point", "coordinates": [-116.942, 33.969]}, "properties": {"spring_name": "HIGHLAND SPRINGS", "temp_f": NaN, "ph": 1.0, "location": "BEAUMONT 7.5", "usgs_quad": NaN}}, {"type": "Feature", "geometry": {"type": "Point", "coordinates": [-122.907, 38.936]}, "properties": {"spring_name": "HIGHLAND SPRINGS", "temp_f": NaN, "ph": 9.0, "location": "HIGHLAND SPRINGS 7.5", "usgs_quad": NaN}}, {"type": "Feature", "geometry": {"type": "Point", "coordinates": [-122.77, 38.925]}, "properties": {"spring_name": "HILDEBRANDE SPRING", "temp_f": NaN, "ph": 10.0, "location": "(KELSEYVILLE 7.5)", "usgs_quad": NaN}}, {"type": "Feature", "geometry": {"type": "Point", "coordinates": [-123.17, 38.8]}, "properties": {"spring_name": "HOODS HOT SPRINGS", "temp_f": NaN, "ph": 2.0, "location": "(HOPLAND 15)", "usgs_quad": NaN}}, {"type": "Feature", "geometry": {"type": "Point", "coordinates": [-122.742, 38.994]}, "properties": {"spring_name": "HORSESHOE SPRING", "temp_f": NaN, "ph": 2.0, "location": "(CLEARLAKE HIGHLANDS 7.5)", "usgs_quad": NaN}}, {"type": "Feature", "geometry": {"type": "Point", "coordinates": [-118.828, 37.665]}, "properties": {"spring_name": "HOT CREEK GORGE SPRINGS", "temp_f": NaN, "ph": 8.0, "location": "MT. MORRISON 15", "usgs_quad": NaN}}, {"type": "Feature", "geometry": {"type": "Point", "coordinates": [-118.834, 37.656]}, "properties": {"spring_name": "HOT CREEK SPRINGS", "temp_f": NaN, "ph": 11.0, "location": "(MT. MORRISON 15)", "usgs_quad": NaN}}, {"type": "Feature", "geometry": {"type": "Point", "coordinates": [-121.523, 41.607]}, "properties": {"spring_name": "HOT SPOT", "temp_f": NaN, "ph": 1.0, "location": "MEDICINE LAKE 15", "usgs_quad": NaN}}, {"type": "Feature", "geometry": {"type": "Point", "coordinates": [-118.813, 37.708]}, "properties": {"spring_name": "HOT SPRING", "temp_f": NaN, "ph": 4.0, "location": "MT. MORRISON 15", "usgs_quad": NaN}}, {"type": "Feature", "geometry": {"type": "Point", "coordinates": [-119.081, 38.048]}, "properties": {"spring_name": "HOT SPRING", "temp_f": NaN, "ph": 9.0, "location": "BODIE 15", "usgs_quad": NaN}}, {"type": "Feature", "geometry": {"type": "Point", "coordinates": [-118.408, 35.727]}, "properties": {"spring_name": "HOT SPRING", "temp_f": NaN, "ph": 2.0, "location": "LAKE ISABELLA NORTH", "usgs_quad": NaN}}, {"type": "Feature", "geometry": {"type": "Point", "coordinates": [-120.243, 40.364]}, "properties": {"spring_name": "HOT SPRING", "temp_f": NaN, "ph": 3.0, "location": "WENDEL 15", "usgs_quad": NaN}}, {"type": "Feature", "geometry": {"type": "Point", "coordinates": [-122.197, 41.407]}, "properties": {"spring_name": "HOT SPRING, FUMAROLES", "temp_f": NaN, "ph": 3.0, "location": "SHASTA 15", "usgs_quad": NaN}}, {"type": "Feature", "geometry": {"type": "Point", "coordinates": [-121.274, 41.012]}, "properties": {"spring_name": "HOT SPRINGS", "temp_f": NaN, "ph": 7.0, "location": "FALL RIVER MILLS 15", "usgs_quad": NaN}}, {"type": "Feature", "geometry": {"type": "Point", "coordinates": [-118.806, 37.648]}, "properties": {"spring_name": "HOT SPRINGS", "temp_f": NaN, "ph": 14.0, "location": "MT. MORRISON 15", "usgs_quad": NaN}}, {"type": "Feature", "geometry": {"type": "Point", "coordinates": [-120.08, 41.266]}, "properties": {"spring_name": "HOT SPRINGS (MENLO BATHS)", "temp_f": NaN, "ph": 14.0, "location": "EAGLEVILLE 7.5", "usgs_quad": NaN}}, {"type": "Feature", "geometry": {"type": "Point", "coordinates": [-120.078, 41.534]}, "properties": {"spring_name": "HOT SPRINGS (SURPRISE VALLEY)", "temp_f": NaN, "ph": 8.0, "location": "CEDARVILLE 15", "usgs_quad": NaN}}, {"type": "Feature", "geometry": {"type": "Point", "coordinates": [-121.42, 40.44]}, "properties": {"spring_name": "HOT SPRINGS VALLEY", "temp_f": NaN, "ph": 6.0, "location": "(MT HARKNESS 15)", "usgs_quad": NaN}}, {"type": "Feature", "geometry": {"type": "Point", "coordinates": [-122.671, 38.858]}, "properties": {"spring_name": "HOWARD SPRINGS", "temp_f": NaN, "ph": 15.0, "location": "WHISPERING PINES 7.5", "usgs_quad": NaN}}, {"type": "Feature", "geometry": {"type": "Point", "coordinates": [-121.926, 41.036]}, "properties": {"spring_name": "HUNT HOT SPRING", "temp_f": NaN, "ph": 5.0, "location": "BIG BEND 15", "usgs_quad": NaN}}, {"type": "Feature", "geometry": {"type": "Point", "coordinates": [-120.935, 40.142]}, "properties": {"spring_name": "INDIAN VALLEY HOT SPRINGS", "temp_f": NaN, "ph": 7.0, "location": "GREENVILLE 15", "usgs_quad": NaN}}, {"type": "Feature", "geometry": {"type": "Point", "coordinates": [-120.898, 36.773]}, "properties": {"spring_name": "IRIDAT SPRING", "temp_f": NaN, "ph": 1.0, "location": "ORTIGALITA PEAK 7.5", "usgs_quad": NaN}}, {"type": "Feature", "geometry": {"type": "Point", "coordinates": [-123.585, 39.657]}, "properties": {"spring_name": "JACKSON VALLEY MUD SPRINGS", "temp_f": NaN, "ph": 2.0, "location": "CAHTO PEAK 7.5", "usgs_quad": NaN}}, {"type": "Feature", "geometry": {"type": "Point", "coordinates": [-116.189, 32.617]}, "properties": {"spring_name": "JACUMBA HOT SPRINGS", "temp_f": NaN, "ph": 3.0, "location": "(JACUMBA 7.5)", "usgs_quad": NaN}}, {"type": "Feature", "geometry": {"type": "Point", "coordinates": [-122.445, 39.033]}, "properties": {"spring_name": "JONES FOUNTAIN OF LIFE SPRING", "temp_f": NaN, "ph": 12.0, "location": "WILBUR SPRINGS 15", "usgs_quad": NaN}}, {"type": "Feature", "geometry": {"type": "Point", "coordinates": [-118.302, 36.229]}, "properties": {"spring_name": "JORDAN HOT SPRINGS", "temp_f": NaN, "ph": 2.0, "location": "HOCKETT PEAK 15", "usgs_quad": NaN}}, {"type": "Feature", "geometry": {"type": "Point", "coordinates": [-116.923, 36.675]}, "properties": {"spring_name": "KEANE WONDER SPRING", "temp_f": NaN, "ph": 1.0, "location": "CHLORIDE CLIFF 15", "usgs_quad": NaN}}, {"type": "Feature", "geometry": {"type": "Point", "coordinates": [-121.028, 41.126]}, "properties": {"spring_name": "KELLOG HOT SPRINGS", "temp_f": NaN, "ph": 4.0, "location": "BIEBER 15", "usgs_quad": NaN}}, {"type": "Feature", "geometry": {"type": "Point", "coordinates": [-120.834, 41.45]}, "properties": {"spring_name": "KELLY HOT SPRING", "temp_f": NaN, "ph": 12.0, "location": "CANBY 15", "usgs_quad": NaN}}, {"type": "Feature", "geometry": {"type": "Point", "coordinates": [-118.373, 37.253]}, "properties": {"spring_name": "KEOUGH HOT SPRINGS", "temp_f": NaN, "ph": 22.0, "location": "BISHOP 15", "usgs_quad": NaN}}, {"type": "Feature", "geometry": {"type": "Point", "coordinates": [-118.404, 36.477]}, "properties": {"spring_name": "KERN HOT SPRING", "temp_f": NaN, "ph": 1.0, "location": "KERN PEAK 15", "usgs_quad": NaN}}, {"type": "Feature", "geometry": {"type": "Point", "coordinates": [-122.202, 41.973]}, "properties": {"spring_name": "KLAMATH HOT SPRING", "temp_f": NaN, "ph": 1.0, "location": "MACDOEL 15", "usgs_quad": NaN}}, {"type": "Feature", "geometry": {"type": "Point", "coordinates": [-120.206, 41.67]}, "properties": {"spring_name": "LAKE CITY HOT SPRINGS", "temp_f": NaN, "ph": 4.0, "location": "CEDARVILLE 15", "usgs_quad": NaN}}, {"type": "Feature", "geometry": {"type": "Point", "coordinates": [-117.145, 33.837]}, "properties": {"spring_name": "LAKEVIEW HOT SPRINGS", "temp_f": NaN, "ph": 3.0, "location": "PERRIS 7.5", "usgs_quad": NaN}}, {"type": "Feature", "geometry": {"type": "Point", "coordinates": [-120.219, 34.503]}, "properties": {"spring_name": "LAS CRUCES HOT SPRINGS", "temp_f": NaN, "ph": 1.0, "location": "SOLVANG 7.5", "usgs_quad": NaN}}, {"type": "Feature", "geometry": {"type": "Point", "coordinates": [-120.088, 41.6]}, "properties": {"spring_name": "LEONARDS HOT SPRINGS", "temp_f": NaN, "ph": 6.0, "location": "CEDARVILLE 15", "usgs_quad": NaN}}, {"type": "Feature", "geometry": {"type": "Point", "coordinates": [-119.613, 34.537]}, "properties": {"spring_name": "LITTLE CALIENTE SPRING", "temp_f": NaN, "ph": 3.0, "location": "HILDRETH PEAK 7.5", "usgs_quad": NaN}}, {"type": "Feature", "geometry": {"type": "Point", "coordinates": [-122.748, 38.767]}, "properties": {"spring_name": "LITTLE GEYSERS", "temp_f": NaN, "ph": 27.0, "location": "(WHISPERING PINES 7.5)", "usgs_quad": NaN}}, {"type": "Feature", "geometry": {"type": "Point", "coordinates": [-118.839, 37.692]}, "properties": {"spring_name": "LITTLE HOT CREEK SPRING", "temp_f": NaN, "ph": 5.0, "location": "MT. MORRISON 15", "usgs_quad": NaN}}, {"type": "Feature", "geometry": {"type": "Point", "coordinates": [-121.405, 41.229]}, "properties": {"spring_name": "LITTLE HOT SPRING", "temp_f": NaN, "ph": 2.0, "location": "FALL RIVER MILLS 15", "usgs_quad": NaN}}, {"type": "Feature", "geometry": {"type": "Point", "coordinates": [-117.848, 36.698]}, "properties": {"spring_name": "LITTLE HUNTER CANYON SPRINGS", "temp_f": NaN, "ph": 4.0, "location": "NEW YORK BUTTE 15", "usgs_quad": NaN}}, {"type": "Feature", "geometry": {"type": "Point", "coordinates": [-121.445, 37.573]}, "properties": {"spring_name": "LONE TREE MINERAL SPRING", "temp_f": NaN, "ph": 5.0, "location": "LONE TREE CREEK 7.5", "usgs_quad": NaN}}, {"type": "Feature", "geometry": {"type": "Point", "coordinates": [-122.552, 38.394]}, "properties": {"spring_name": "LOS GUILICOS WARM SPRINGS", "temp_f": NaN, "ph": 34.0, "location": "KENWOOD 7.5", "usgs_quad": NaN}}, {"type": "Feature", "geometry": {"type": "Point", "coordinates": [-117.771, 36.806]}, "properties": {"spring_name": "LOWER WARM SPRINGS", "temp_f": NaN, "ph": 3.0, "location": "WAUCOBA WASH 15", "usgs_quad": NaN}}, {"type": "Feature", "geometry": {"type": "Point", "coordinates": [-122.72, 38.55]}, "properties": {"spring_name": "MARK WEST SPRINGS", "temp_f": NaN, "ph": 31.0, "location": "MARK WEST SPRINGS 7.5", "usgs_quad": NaN}}, {"type": "Feature", "geometry": {"type": "Point", "coordinates": [-119.302, 34.482]}, "properties": {"spring_name": "MATILIJA HOT SPRINGS", "temp_f": NaN, "ph": 9.0, "location": "MATILIJA 7.5", "usgs_quad": NaN}}, {"type": "Feature", "geometry": {"type": "Point", "coordinates": [-114.907, 33.733]}, "properties": {"spring_name": "MCCOY SPRING", "temp_f": NaN, "ph": 1.0, "location": "MCCOY SPRING 15", "usgs_quad": NaN}}, {"type": "Feature", "geometry": {"type": "Point", "coordinates": [-120.547, 39.728]}, "properties": {"spring_name": "MCLEAR WARM SPRINGS", "temp_f": NaN, "ph": 3.0, "location": "SIERRA CITY 15", "usgs_quad": NaN}}, {"type": "Feature", "geometry": {"type": "Point", "coordinates": [-120.86, 36.703]}, "properties": {"spring_name": "MERCEY HOT SPRINGS", "temp_f": NaN, "ph": 3.0, "location": "MERCEY HOT SPRINGS 7.5", "usgs_quad": NaN}}, {"type": "Feature", "geometry": {"type": "Point", "coordinates": [-121.545, 40.457]}, "properties": {"spring_name": "MILL CREEK SPRINGS", "temp_f": NaN, "ph": 1.0, "location": "(LASSEN PEAK 15)", "usgs_quad": NaN}}, {"type": "Feature", "geometry": {"type": "Point", "coordinates": [-121.794, 37.398]}, "properties": {"spring_name": "MINERAL SPRINGS", "temp_f": NaN, "ph": 8.0, "location": "CALAVERAS RESERVOIR", "usgs_quad": NaN}}, {"type": "Feature", "geometry": {"type": "Point", "coordinates": [-118.534, 35.575]}, "properties": {"spring_name": "MIRACLE HOT SPRS, HOBO HOT SPRS", "temp_f": NaN, "ph": 4.0, "location": "MIRACLE HOT SPRINGS", "usgs_quad": NaN}}, {"type": "Feature", "geometry": {"type": "Point", "coordinates": [-119.917, 35.483]}, "properties": {"spring_name": "MIZE SPRING", "temp_f": NaN, "ph": 1.0, "location": "(LAS YEGUAS RANCH 7.5)", "usgs_quad": NaN}}, {"type": "Feature", "geometry": {"type": "Point", "coordinates": [-118.902, 38.033]}, "properties": {"spring_name": "MONO BASIN WARM SPRINGS", "temp_f": NaN, "ph": 1.0, "location": "TRENCH CANYON 15", "usgs_quad": NaN}}, {"type": "Feature", "geometry": {"type": "Point", "coordinates": [-119.018, 37.327]}, "properties": {"spring_name": "MONO HOT SPRINGS", "temp_f": NaN, "ph": 9.0, "location": "KAISER PEAK 15", "usgs_quad": NaN}}, {"type": "Feature", "geometry": {"type": "Point", "coordinates": [-119.637, 34.461]}, "properties": {"spring_name": "MONTECITO HOT SPRINGS", "temp_f": NaN, "ph": 10.0, "location": "SANTA BARBARA 7.5", "usgs_quad": NaN}}, {"type": "Feature", "geometry": {"type": "Point", "coordinates": [-121.513, 40.382]}, "properties": {"spring_name": "MORGAN HOT SPRING", "temp_f": NaN, "ph": 10.0, "location": "LASSEN PEAK 15", "usgs_quad": NaN}}, {"type": "Feature", "geometry": {"type": "Point", "coordinates": [-115.577, 33.201]}, "properties": {"spring_name": "MUD POTS", "temp_f": NaN, "ph": 14.0, "location": "NILAND 7.5", "usgs_quad": NaN}}, {"type": "Feature", "geometry": {"type": "Point", "coordinates": [-115.591, 33.212]}, "properties": {"spring_name": "MUD POTS", "temp_f": NaN, "ph": 13.0, "location": "NILAND 7.5", "usgs_quad": NaN}}, {"type": "Feature", "geometry": {"type": "Point", "coordinates": [-115.575, 33.332]}, "properties": {"spring_name": "MUD VOLCANOES", "temp_f": NaN, "ph": 6.0, "location": "(WISTER 7.5)", "usgs_quad": NaN}}, {"type": "Feature", "geometry": {"type": "Point", "coordinates": [-115.583, 33.328]}, "properties": {"spring_name": "MUD VOLCANOES", "temp_f": NaN, "ph": 7.0, "location": "(WISTER 7.5)", "usgs_quad": NaN}}, {"type": "Feature", "geometry": {"type": "Point", "coordinates": [-115.577, 33.312]}, "properties": {"spring_name": "MUD VOLCANOES", "temp_f": NaN, "ph": 9.0, "location": "(WISTER 7.5)", "usgs_quad": NaN}}, {"type": "Feature", "geometry": {"type": "Point", "coordinates": [-115.575, 33.288]}, "properties": {"spring_name": "MUD VOLCANOES", "temp_f": NaN, "ph": 10.0, "location": "(WISTER 7.5)", "usgs_quad": NaN}}, {"type": "Feature", "geometry": {"type": "Point", "coordinates": [-115.592, 33.28]}, "properties": {"spring_name": "MUD VOLCANOES", "temp_f": NaN, "ph": 11.0, "location": "(WISTER 7.5)", "usgs_quad": NaN}}, {"type": "Feature", "geometry": {"type": "Point", "coordinates": [-115.573, 33.343]}, "properties": {"spring_name": "MUD VOLCANOES", "temp_f": NaN, "ph": 5.0, "location": "(WISTER 7.5)", "usgs_quad": NaN}}, {"type": "Feature", "geometry": {"type": "Point", "coordinates": [-115.588, 33.345]}, "properties": {"spring_name": "MUD VOLCANOES", "temp_f": NaN, "ph": 4.0, "location": "(WISTER 7.5)", "usgs_quad": NaN}}, {"type": "Feature", "geometry": {"type": "Point", "coordinates": [-115.605, 33.313]}, "properties": {"spring_name": "MUD VOLCANOES", "temp_f": NaN, "ph": 8.0, "location": "(WISTER 7.5)", "usgs_quad": NaN}}, {"type": "Feature", "geometry": {"type": "Point", "coordinates": [-123.308, 39.429]}, "properties": {"spring_name": "MUIR SPRINGS", "temp_f": NaN, "ph": 3.0, "location": "(WILLITS 15)", "usgs_quad": NaN}}, {"type": "Feature", "geometry": {"type": "Point", "coordinates": [-117.154, 33.558]}, "properties": {"spring_name": "MURRIETTA HOT SPRINGS", "temp_f": NaN, "ph": 8.0, "location": "MURRIETTA 7.5", "usgs_quad": NaN}}, {"type": "Feature", "geometry": {"type": "Point", "coordinates": [-120.025, 38.85]}, "properties": {"spring_name": "MYERS WARM SPRING", "temp_f": NaN, "ph": 1.0, "location": "(ECHO LAKE 7.5)", "usgs_quad": NaN}}, {"type": "Feature", "geometry": {"type": "Point", "coordinates": [-122.26, 38.519]}, "properties": {"spring_name": "NAPA ROCK SODA SPRING, PHILLIPS SOD", "temp_f": NaN, "ph": 32.0, "location": "CHILES VALLEY 7.5", "usgs_quad": NaN}}, {"type": "Feature", "geometry": {"type": "Point", "coordinates": [-122.259, 38.339]}, "properties": {"spring_name": "NAPA VICHY SPRINGS", "temp_f": NaN, "ph": 37.0, "location": "NAPA 7.5", "usgs_quad": NaN}}, {"type": "Feature", "geometry": {"type": "Point", "coordinates": [-116.821, 36.512]}, "properties": {"spring_name": "NEVARES SPRINGS", "temp_f": NaN, "ph": 2.0, "location": "CHLORIDE CLIFF 15", "usgs_quad": NaN}}, {"type": "Feature", "geometry": {"type": "Point", "coordinates": [-116.677, 34.826]}, "properties": {"spring_name": "NEWBERRY SPRING", "temp_f": NaN, "ph": 1.0, "location": "NEWBERRY 15", "usgs_quad": NaN}}, {"type": "Feature", "geometry": {"type": "Point", "coordinates": [-122.714, 39.196]}, "properties": {"spring_name": "NEWMAN SPRINGS", "temp_f": NaN, "ph": 6.0, "location": "CLEARLAKE OAKS 15", "usgs_quad": NaN}}, {"type": "Feature", "geometry": {"type": "Point", "coordinates": [-120.542, 35.122]}, "properties": {"spring_name": "NEWSOM SPRINGS", "temp_f": NaN, "ph": 7.0, "location": "OCEANO 7.5", "usgs_quad": NaN}}, {"type": "Feature", "geometry": {"type": "Point", "coordinates": [-122.357, 38.833]}, "properties": {"spring_name": "ONE SHOT MINING CO", "temp_f": NaN, "ph": 20.0, "location": "(KNOXVILLE 7.5)", "usgs_quad": NaN}}, {"type": "Feature", "geometry": {"type": "Point", "coordinates": [-123.362, 39.227]}, "properties": {"spring_name": "ORRS SPRINGS", "temp_f": NaN, "ph": 4.0, "location": "BOONVILLE 15", "usgs_quad": NaN}}, {"type": "Feature", "geometry": {"type": "Point", "coordinates": [-117.763, 36.814]}, "properties": {"spring_name": "PALM SPRING", "temp_f": NaN, "ph": 2.0, "location": "WAUCOBA WASH 15", "usgs_quad": NaN}}, {"type": "Feature", "geometry": {"type": "Point", "coordinates": [-116.542, 33.823]}, "properties": {"spring_name": "PALM SPRINGS (AGUA CALIENTE SPRING)", "temp_f": NaN, "ph": 3.0, "location": "PALM SPRINGS 7.5", "usgs_quad": NaN}}, {"type": "Feature", "geometry": {"type": "Point", "coordinates": [-116.838, 34.271]}, "properties": {"spring_name": "PAN HOT SPRINGS", "temp_f": NaN, "ph": 2.0, "location": "(BIG BEAR CITY 7.5)", "usgs_quad": NaN}}, {"type": "Feature", "geometry": {"type": "Point", "coordinates": [-119.028, 37.993]}, "properties": {"spring_name": "PAOHA ISLAND SPRINGS", "temp_f": NaN, "ph": 1.0, "location": "(MONO CRATERS 15)", "usgs_quad": NaN}}, {"type": "Feature", "geometry": {"type": "Point", "coordinates": [-116.813, 35.143]}, "properties": {"spring_name": "PARADISE SPRING", "temp_f": NaN, "ph": 9.0, "location": "LANE MOUNTAIN 15", "usgs_quad": NaN}}, {"type": "Feature", "geometry": {"type": "Point", "coordinates": [-121.367, 36.331]}, "properties": {"spring_name": "PARAISO SPRINGS (SULPHUR SPRING)", "temp_f": NaN, "ph": 4.0, "location": "PARAISO SPRINGS 7.5", "usgs_quad": NaN}}, {"type": "Feature", "geometry": {"type": "Point", "coordinates": [-120.692, 35.663]}, "properties": {"spring_name": "PASO ROBLES ARTESIAN SPRING", "temp_f": NaN, "ph": 2.0, "location": "(PASO ROBLES 7.5)", "usgs_quad": NaN}}, {"type": "Feature", "geometry": {"type": "Point", "coordinates": [-120.851, 35.269]}, "properties": {"spring_name": "PECHO WARM SPRINGS", "temp_f": NaN, "ph": 6.0, "location": "(MORRO BAY SOUTH 7.5)", "usgs_quad": NaN}}, {"type": "Feature", "geometry": {"type": "Point", "coordinates": [-123.478, 39.697]}, "properties": {"spring_name": "PINCHES SPRING", "temp_f": NaN, "ph": 1.0, "location": "LAYTONVILLE 7.5", "usgs_quad": NaN}}, {"type": "Feature", "geometry": {"type": "Point", "coordinates": [-122.693, 38.85]}, "properties": {"spring_name": "PINE CONE SPRING", "temp_f": NaN, "ph": 16.0, "location": "(WHISPERING PINES 7.5)", "usgs_quad": NaN}}, {"type": "Feature", "geometry": {"type": "Point", "coordinates": [-123.518, 38.874]}, "properties": {"spring_name": "POINT ARENA HOT SPRINGS", "temp_f": NaN, "ph": 1.0, "location": "(GUALALA 7.5)", "usgs_quad": NaN}}, {"type": "Feature", "geometry": {"type": "Point", "coordinates": [-120.917, 41.828]}, "properties": {"spring_name": "POTHOLE SPRING", "temp_f": NaN, "ph": 3.0, "location": "STEELE SWAMP 15", "usgs_quad": NaN}}, {"type": "Feature", "geometry": {"type": "Point", "coordinates": [-122.505, 39.198]}, "properties": {"spring_name": "PSEUDO COMPLEXION SPRING", "temp_f": NaN, "ph": 5.0, "location": "(CLEARLAKE OAKS 15)", "usgs_quad": NaN}}, {"type": "Feature", "geometry": {"type": "Point", "coordinates": [-122.597, 39.053]}, "properties": {"spring_name": "QUIGLEY SODA SPRING", "temp_f": NaN, "ph": 10.0, "location": "CLEARLAKE OAKS 15", "usgs_quad": NaN}}, {"type": "Feature", "geometry": {"type": "Point", "coordinates": [-119.074, 37.618]}, "properties": {"spring_name": "REDS MEADOW HOT SPRINGS", "temp_f": NaN, "ph": 6.0, "location": "DEVILS POSTPILE 15", "usgs_quad": NaN}}, {"type": "Feature", "geometry": {"type": "Point", "coordinates": [-116.153, 35.879]}, "properties": {"spring_name": "RESTING SPRING", "temp_f": NaN, "ph": 5.0, "location": "TECOPA 15", "usgs_quad": NaN}}, {"type": "Feature", "geometry": {"type": "Point", "coordinates": [-122.701, 38.958]}, "properties": {"spring_name": "RIVIERA BEACH SPRING", "temp_f": NaN, "ph": 6.0, "location": "(CLEARLAKE HIGHLANDS 7.5)", "usgs_quad": NaN}}, {"type": "Feature", "geometry": {"type": "Point", "coordinates": [-122.627, 37.88]}, "properties": {"spring_name": "ROCKY POINT SPRINGS", "temp_f": NaN, "ph": 2.0, "location": "(BOLINAS 7.5)", "usgs_quad": NaN}}, {"type": "Feature", "geometry": {"type": "Point", "coordinates": [-121.308, 37.432]}, "properties": {"spring_name": "SALT GRASS SPRINGS", "temp_f": NaN, "ph": 7.0, "location": "COPPER MTN. 7.5", "usgs_quad": NaN}}, {"type": "Feature", "geometry": {"type": "Point", "coordinates": [-117.511, 33.589]}, "properties": {"spring_name": "SAN JUAN HOT SPRINGS", "temp_f": NaN, "ph": 7.0, "location": "CANADA GOBERNADORA 7.5", "usgs_quad": NaN}}, {"type": "Feature", "geometry": {"type": "Point", "coordinates": [-119.879, 34.537]}, "properties": {"spring_name": "SAN MARCOS HOT SPRING", "temp_f": NaN, "ph": 4.0, "location": "LAKE CACHUMA 7.5", "usgs_quad": NaN}}, {"type": "Feature", "geometry": {"type": "Point", "coordinates": [-120.666, 35.582]}, "properties": {"spring_name": "SANTA YSABEL SPRINGS (SULPHUR SPR)", "temp_f": NaN, "ph": 4.0, "location": "TEMPLETON 7.5", "usgs_quad": NaN}}, {"type": "Feature", "geometry": {"type": "Point", "coordinates": [-116.422, 35.682]}, "properties": {"spring_name": "SARATOGA SPRING", "temp_f": NaN, "ph": 7.0, "location": "AVAWATZ PASS 15", "usgs_quad": NaN}}, {"type": "Feature", "geometry": {"type": "Point", "coordinates": [-121.565, 36.938]}, "properties": {"spring_name": "SARGENT ESTATE WARM SPRING", "temp_f": NaN, "ph": 1.0, "location": "CHITTENDEN 7.5", "usgs_quad": NaN}}, {"type": "Feature", "geometry": {"type": "Point", "coordinates": [-118.473, 35.62]}, "properties": {"spring_name": "SCOVERN HOT SPRINGS", "temp_f": NaN, "ph": 3.0, "location": "LAKE ISABELLA SOUTH", "usgs_quad": NaN}}, {"type": "Feature", "geometry": {"type": "Point", "coordinates": [-122.689, 38.873]}, "properties": {"spring_name": "SEIGLER SPRINGS", "temp_f": NaN, "ph": 14.0, "location": "WHISPERING PINES 7.5", "usgs_quad": NaN}}, {"type": "Feature", "geometry": {"type": "Point", "coordinates": [-120.325, 40.568]}, "properties": {"spring_name": "SELLICKS SPRINGS", "temp_f": NaN, "ph": 2.0, "location": "KARLO 15", "usgs_quad": NaN}}, {"type": "Feature", "geometry": {"type": "Point", "coordinates": [-118.998, 34.596]}, "properties": {"spring_name": "SESPE HOT SPRINGS", "temp_f": NaN, "ph": 2.0, "location": "DEVILS HEART PEAK 7.5", "usgs_quad": NaN}}, {"type": "Feature", "geometry": {"type": "Point", "coordinates": [-120.102, 41.615]}, "properties": {"spring_name": "SEYFERTH HOT SPRINGS", "temp_f": NaN, "ph": 5.0, "location": "CEDARVILLE 15", "usgs_quad": NaN}}, {"type": "Feature", "geometry": {"type": "Point", "coordinates": [-116.359, 35.588]}, "properties": {"spring_name": "SHEEP CREEK SPRING", "temp_f": NaN, "ph": 8.0, "location": "AVAWATZ PASS 15", "usgs_quad": NaN}}, {"type": "Feature", "geometry": {"type": "Point", "coordinates": [-116.273, 35.978]}, "properties": {"spring_name": "SHOSHONE SPRING", "temp_f": NaN, "ph": 1.0, "location": "SHOSHONE 15", "usgs_quad": NaN}}, {"type": "Feature", "geometry": {"type": "Point", "coordinates": [-123.024, 38.691]}, "properties": {"spring_name": "SKAGGS SPRINGS", "temp_f": NaN, "ph": 3.0, "location": "SKAGGS SPRINGS 7.5", "usgs_quad": NaN}}, {"type": "Feature", "geometry": {"type": "Point", "coordinates": [-121.64, 36.123]}, "properties": {"spring_name": "SLATES HOT SPRINGS", "temp_f": NaN, "ph": 7.0, "location": "LOPEZ POINT 7.5", "usgs_quad": NaN}}, {"type": "Feature", "geometry": {"type": "Point", "coordinates": [-116.927, 33.8]}, "properties": {"spring_name": "SOBODA HOT SPRINGS", "temp_f": NaN, "ph": 4.0, "location": "SAN JACINTO 7.5", "usgs_quad": NaN}}, {"type": "Feature", "geometry": {"type": "Point", "coordinates": [-118.816, 36.13]}, "properties": {"spring_name": "SODA SPRING", "temp_f": NaN, "ph": 4.0, "location": "SPRINGVILLE 7.5", "usgs_quad": NaN}}, {"type": "Feature", "geometry": {"type": "Point", "coordinates": [-122.572, 38.95]}, "properties": {"spring_name": "SODA SPRING IN CACHE FORMATION", "temp_f": NaN, "ph": 8.0, "location": "(LOWER LAKE 7.5)", "usgs_quad": NaN}}, {"type": "Feature", "geometry": {"type": "Point", "coordinates": [-118.176, 36.21]}, "properties": {"spring_name": "SODA SPRINGS", "temp_f": NaN, "ph": 3.0, "location": "MONACHE MTN. 15", "usgs_quad": NaN}}, {"type": "Feature", "geometry": {"type": "Point", "coordinates": [-116.101, 35.141]}, "properties": {"spring_name": "SODA STATION SPRINGS", "temp_f": NaN, "ph": 10.0, "location": "SODA LAKE 15", "usgs_quad": NaN}}, {"type": "Feature", "geometry": {"type": "Point", "coordinates": [-122.653, 38.838]}, "properties": {"spring_name": "SPIERS SPRINGS", "temp_f": NaN, "ph": 18.0, "location": "(WHISPERING PINES 7.5)", "usgs_quad": NaN}}, {"type": "Feature", "geometry": {"type": "Point", "coordinates": [-121.036, 40.019]}, "properties": {"spring_name": "SPRING", "temp_f": NaN, "ph": 11.0, "location": "ALMANOR 15", "usgs_quad": NaN}}, {"type": "Feature", "geometry": {"type": "Point", "coordinates": [-120.764, 41.484]}, "properties": {"spring_name": "SPRING", "temp_f": NaN, "ph": 10.0, "location": "CANBY 15", "usgs_quad": NaN}}, {"type": "Feature", "geometry": {"type": "Point", "coordinates": [-120.901, 36.765]}, "properties": {"spring_name": "SPRING", "temp_f": NaN, "ph": 2.0, "location": "ORTIGALITA PEAK 7.5", "usgs_quad": NaN}}, {"type": "Feature", "geometry": {"type": "Point", "coordinates": [-117.604, 33.514]}, "properties": {"spring_name": "SPRING", "temp_f": NaN, "ph": 10.0, "location": "CANADA GOBERNADORA 7.5", "usgs_quad": NaN}}, {"type": "Feature", "geometry": {"type": "Point", "coordinates": [-118.651, 35.536]}, "properties": {"spring_name": "SPRING (HOT)", "temp_f": NaN, "ph": 6.0, "location": "DEMOCRAT HOT SPRINGS 7.5", "usgs_quad": NaN}}, {"type": "Feature", "geometry": {"type": "Point", "coordinates": [-121.042, 37.083]}, "properties": {"spring_name": "SPRING IN ONEILL FOREBAY", "temp_f": NaN, "ph": 10.0, "location": "(SAN LUIS DAM 7.5)", "usgs_quad": NaN}}, {"type": "Feature", "geometry": {"type": "Point", "coordinates": [-118.735, 37.719]}, "properties": {"spring_name": "SPRINGS", "temp_f": NaN, "ph": 3.0, "location": "CASA DIABLO MTN. 15", "usgs_quad": NaN}}, {"type": "Feature", "geometry": {"type": "Point", "coordinates": [-120.475, 41.196]}, "properties": {"spring_name": "SPRINGS", "temp_f": NaN, "ph": 18.0, "location": "TULE MOUNTAIN 7.5", "usgs_quad": NaN}}, {"type": "Feature", "geometry": {"type": "Point", "coordinates": [-121.965, 37.929]}, "properties": {"spring_name": "SPRINGS", "temp_f": NaN, "ph": 1.0, "location": "CLAYTON 7.5", "usgs_quad": NaN}}, {"type": "Feature", "geometry": {"type": "Point", "coordinates": [-116.258, 35.888]}, "properties": {"spring_name": "SPRINGS", "temp_f": NaN, "ph": 4.0, "location": "SHOSHONE 15", "usgs_quad": NaN}}, {"type": "Feature", "geometry": {"type": "Point", "coordinates": [-117.893, 36.495]}, "properties": {"spring_name": "SPRINGS", "temp_f": NaN, "ph": 5.0, "location": "KEELER 15", "usgs_quad": NaN}}, {"type": "Feature", "geometry": {"type": "Point", "coordinates": [-118.72, 37.635]}, "properties": {"spring_name": "SPRINGS", "temp_f": NaN, "ph": 18.0, "location": "CASA DIABLO MTN. 15", "usgs_quad": NaN}}, {"type": "Feature", "geometry": {"type": "Point", "coordinates": [-119.903, 43.513]}, "properties": {"spring_name": "SPRINGS AT TECOLOTE TUNNEL", "temp_f": NaN, "ph": 5.0, "location": "(LAKE CACHUMA 7.5)", "usgs_quad": NaN}}, {"type": "Feature", "geometry": {"type": "Point", "coordinates": [-120.066, 41.219]}, "properties": {"spring_name": "SQUAW BATHS", "temp_f": NaN, "ph": 16.0, "location": "(SNAKE LAKE 7.5)", "usgs_quad": NaN}}, {"type": "Feature", "geometry": {"type": "Point", "coordinates": [-122.498, 38.49]}, "properties": {"spring_name": "ST HELENA WHITE SULPHUR SPRING", "temp_f": NaN, "ph": 33.0, "location": "(RUTHERFORD 7.5)", "usgs_quad": NaN}}, {"type": "Feature", "geometry": {"type": "Point", "coordinates": [-119.341, 34.498]}, "properties": {"spring_name": "STINGLEYS HOT SPRINGS", "temp_f": NaN, "ph": 8.0, "location": "MATILIJA 7.5", "usgs_quad": NaN}}, {"type": "Feature", "geometry": {"type": "Point", "coordinates": [-122.747, 40.223]}, "properties": {"spring_name": "STINKING SPRINGS", "temp_f": NaN, "ph": 2.0, "location": "COLD FORK 7.5", "usgs_quad": NaN}}, {"type": "Feature", "geometry": {"type": "Point", "coordinates": [-122.664, 39.002]}, "properties": {"spring_name": "SULPHUR BANK", "temp_f": NaN, "ph": 17.0, "location": "CLEARLAKE OAKS 7.5", "usgs_quad": NaN}}, {"type": "Feature", "geometry": {"type": "Point", "coordinates": [-122.777, 38.788]}, "properties": {"spring_name": "SULPHUR CREEK", "temp_f": NaN, "ph": 22.0, "location": "(THE GEYSERS 7.5)", "usgs_quad": NaN}}, {"type": "Feature", "geometry": {"type": "Point", "coordinates": [-121.845, 36.618]}, "properties": {"spring_name": "SULPHUR HOT SPRING", "temp_f": NaN, "ph": 2.0, "location": "(SEASIDE 7.5)", "usgs_quad": NaN}}, {"type": "Feature", "geometry": {"type": "Point", "coordinates": [-122.525, 39.088]}, "properties": {"spring_name": "SULPHUR SPRING", "temp_f": NaN, "ph": 8.0, "location": "CLEARLAKE OAKS 15", "usgs_quad": NaN}}, {"type": "Feature", "geometry": {"type": "Point", "coordinates": [-122.046, 37.924]}, "properties": {"spring_name": "SULPHUR SPRING", "temp_f": NaN, "ph": 1.0, "location": "(WALNUT CREEK 7.5)", "usgs_quad": NaN}}, {"type": "Feature", "geometry": {"type": "Point", "coordinates": [-122.538, 39.43]}, "properties": {"spring_name": "SULPHUR SPRING, SALT SPRING", "temp_f": NaN, "ph": 1.0, "location": "STONYFORD 7.5", "usgs_quad": NaN}}, {"type": "Feature", "geometry": {"type": "Point", "coordinates": [-120.985, 36.295]}, "properties": {"spring_name": "SULPHUR SPRINGS", "temp_f": NaN, "ph": 5.0, "location": "LONOAK 7.5", "usgs_quad": NaN}}, {"type": "Feature", "geometry": {"type": "Point", "coordinates": [-123.319, 41.659]}, "properties": {"spring_name": "SULPHUR SPRINGS", "temp_f": NaN, "ph": 1.0, "location": "UKONOM LAKE 15", "usgs_quad": NaN}}, {"type": "Feature", "geometry": {"type": "Point", "coordinates": [-121.536, 40.447]}, "properties": {"spring_name": "SULPHUR WORKS, TOPHET HOT SPRINGS", "temp_f": NaN, "ph": 3.0, "location": "LASSEN PEAK 15", "usgs_quad": NaN}}, {"type": "Feature", "geometry": {"type": "Point", "coordinates": [-120.367, 35.908]}, "properties": {"spring_name": "TABLE MOUNTAIN (SPRING)", "temp_f": NaN, "ph": 1.0, "location": "(THE DARK HOLE 7.5)", "usgs_quad": NaN}}, {"type": "Feature", "geometry": {"type": "Point", "coordinates": [-121.546, 36.234]}, "properties": {"spring_name": "TASSAJARA HOT SPRINGS", "temp_f": NaN, "ph": 6.0, "location": "TASSAJARA HOT SPRINGS 7.5", "usgs_quad": NaN}}, {"type": "Feature", "geometry": {"type": "Point", "coordinates": [-116.23, 35.871]}, "properties": {"spring_name": "TECOPA HOT SPRINGS", "temp_f": NaN, "ph": 6.0, "location": "TECOPA 15", "usgs_quad": NaN}}, {"type": "Feature", "geometry": {"type": "Point", "coordinates": [-117.167, 33.551]}, "properties": {"spring_name": "TEMECULA HOT SPRINGS", "temp_f": NaN, "ph": 9.0, "location": "MURRIETTA 7.5", "usgs_quad": NaN}}, {"type": "Feature", "geometry": {"type": "Point", "coordinates": [-121.375, 40.421]}, "properties": {"spring_name": "TERMINAL GEYSER", "temp_f": NaN, "ph": 8.0, "location": "MT. HARKNESS 15", "usgs_quad": NaN}}, {"type": "Feature", "geometry": {"type": "Point", "coordinates": [-122.81, 38.802]}, "properties": {"spring_name": "THE GEYSERS", "temp_f": NaN, "ph": 21.0, "location": "THE GEYSERS 7.5", "usgs_quad": NaN}}, {"type": "Feature", "geometry": {"type": "Point", "coordinates": [-119.217, 38.225]}, "properties": {"spring_name": "THE HOT SPRINGS", "temp_f": NaN, "ph": 7.0, "location": "BODIE 15", "usgs_quad": NaN}}, {"type": "Feature", "geometry": {"type": "Point", "coordinates": [-118.802, 37.664]}, "properties": {"spring_name": "THE TUB", "temp_f": NaN, "ph": 9.0, "location": "(MT. MORRISON 15)", "usgs_quad": NaN}}, {"type": "Feature", "geometry": {"type": "Point", "coordinates": [-120.265, 40.58]}, "properties": {"spring_name": "TIPTON SPRINGS", "temp_f": NaN, "ph": 1.0, "location": "KARLO 15", "usgs_quad": NaN}}, {"type": "Feature", "geometry": {"type": "Point", "coordinates": [-122.053, 38.31]}, "properties": {"spring_name": "TOLENAS SPRINGS", "temp_f": NaN, "ph": 39.0, "location": "FIARFIELD NORTH 7.5", "usgs_quad": NaN}}, {"type": "Feature", "geometry": {"type": "Point", "coordinates": [-119.205, 38.245]}, "properties": {"spring_name": "TRAVERTINE HOT SPRINGS", "temp_f": NaN, "ph": 5.0, "location": "BODIE 15", "usgs_quad": NaN}}, {"type": "Feature", "geometry": {"type": "Point", "coordinates": [-116.829, 36.441]}, "properties": {"spring_name": "TRAVERTINE SPRINGS", "temp_f": NaN, "ph": 3.0, "location": "FURNACE CREEK 15", "usgs_quad": NaN}}, {"type": "Feature", "geometry": {"type": "Point", "coordinates": [-122.11, 40.238]}, "properties": {"spring_name": "TUSCAN SPRINGS", "temp_f": NaN, "ph": 1.0, "location": "TUSCAN SPRINGS 7.5", "usgs_quad": NaN}}, {"type": "Feature", "geometry": {"type": "Point", "coordinates": [-117.483, 34.228]}, "properties": {"spring_name": "TYLERS BATH SPRING", "temp_f": NaN, "ph": 2.0, "location": "(DEVORE 7.5)", "usgs_quad": NaN}}, {"type": "Feature", "geometry": {"type": "Point", "coordinates": [-117.736, 36.83]}, "properties": {"spring_name": "UPPER WARM SPRING", "temp_f": NaN, "ph": 1.0, "location": "DRY MOUNTAIN 15", "usgs_quad": NaN}}, {"type": "Feature", "geometry": {"type": "Point", "coordinates": [-116.423, 32.97]}, "properties": {"spring_name": "VALLECITOS SPRING", "temp_f": NaN, "ph": 1.0, "location": "MONUMENT PEAK 7.5", "usgs_quad": NaN}}, {"type": "Feature", "geometry": {"type": "Point", "coordinates": [-122.188, 38.125]}, "properties": {"spring_name": "VALLEJO WHITE SULPHUR SPRINGS", "temp_f": NaN, "ph": 40.0, "location": "BENICIA 7.5", "usgs_quad": NaN}}, {"type": "Feature", "geometry": {"type": "Point", "coordinates": [-120.827, 38.192]}, "properties": {"spring_name": "VALLEY SPRINGS", "temp_f": NaN, "ph": 2.0, "location": "VALLEY SPRINGS 7.5", "usgs_quad": NaN}}, {"type": "Feature", "geometry": {"type": "Point", "coordinates": [-123.159, 39.166]}, "properties": {"spring_name": "VICHY SPRINGS", "temp_f": NaN, "ph": 5.0, "location": "UKIAH 7.5", "usgs_quad": NaN}}, {"type": "Feature", "geometry": {"type": "Point", "coordinates": [-119.346, 34.502]}, "properties": {"spring_name": "VICKERS HOT SPRINGS", "temp_f": NaN, "ph": 7.0, "location": "(WHEELER SPRINGS 7.5)", "usgs_quad": NaN}}, {"type": "Feature", "geometry": {"type": "Point", "coordinates": [-118.776, 36.117]}, "properties": {"spring_name": "WARD SPRING", "temp_f": NaN, "ph": 5.0, "location": "GLOBE 7.5", "usgs_quad": NaN}}, {"type": "Feature", "geometry": {"type": "Point", "coordinates": [-116.931, 35.967]}, "properties": {"spring_name": "WARM SPRING", "temp_f": NaN, "ph": 2.0, "location": "WINGATE WASH 15", "usgs_quad": NaN}}, {"type": "Feature", "geometry": {"type": "Point", "coordinates": [-118.561, 34.605]}, "properties": {"spring_name": "WARM SPRING", "temp_f": NaN, "ph": 1.0, "location": "WARM SPRINGS MOUNTAIN 7.5", "usgs_quad": NaN}}, {"type": "Feature", "geometry": {"type": "Point", "coordinates": [-120.403, 41.16]}, "properties": {"spring_name": "WARM SPRING", "temp_f": NaN, "ph": 21.0, "location": "TULE MOUNTAIN 7.5", "usgs_quad": NaN}}, {"type": "Feature", "geometry": {"type": "Point", "coordinates": [-119.118, 38.203]}, "properties": {"spring_name": "WARM SPRING", "temp_f": NaN, "ph": 8.0, "location": "BODIE 15", "usgs_quad": NaN}}, {"type": "Feature", "geometry": {"type": "Point", "coordinates": [-120.521, 41.252]}, "properties": {"spring_name": "WARM SPRING", "temp_f": NaN, "ph": 15.0, "location": "ALTURAS 15", "usgs_quad": NaN}}, {"type": "Feature", "geometry": {"type": "Point", "coordinates": [-120.936, 41.959]}, "properties": {"spring_name": "WARM SPRING", "temp_f": NaN, "ph": 1.0, "location": "STEELE SWAMP 15", "usgs_quad": NaN}}, {"type": "Feature", "geometry": {"type": "Point", "coordinates": [-118.783, 35.148]}, "properties": {"spring_name": "WARM SPRING", "temp_f": NaN, "ph": 9.0, "location": "ARVIN 7.5", "usgs_quad": NaN}}, {"type": "Feature", "geometry": {"type": "Point", "coordinates": [-117.173, 34.34]}, "properties": {"spring_name": "WARM SPRING, HOT SPRING", "temp_f": NaN, "ph": 1.0, "location": "LAKE ARROWHEAD 7.5", "usgs_quad": NaN}}, {"type": "Feature", "geometry": {"type": "Point", "coordinates": [-117.217, 36.122]}, "properties": {"spring_name": "WARM SULPHUR SPRINGS", "temp_f": NaN, "ph": 7.0, "location": "TELESCOPE PEAK 15", "usgs_quad": NaN}}, {"type": "Feature", "geometry": {"type": "Point", "coordinates": [-116.631, 33.284]}, "properties": {"spring_name": "WARNER HOT SPRING", "temp_f": NaN, "ph": 7.0, "location": "WARNER SPRINGS 7.5", "usgs_quad": NaN}}, {"type": "Feature", "geometry": {"type": "Point", "coordinates": [-120.257, 40.355]}, "properties": {"spring_name": "WENDEL HOT SPRINGS", "temp_f": NaN, "ph": 4.0, "location": "LITCHFIELD 15", "usgs_quad": NaN}}, {"type": "Feature", "geometry": {"type": "Point", "coordinates": [-120.383, 41.19]}, "properties": {"spring_name": "WEST VALLEY RESERVOIR HOT SPRING", "temp_f": NaN, "ph": 19.0, "location": "(TULE MOUNTAIN 7.5)", "usgs_quad": NaN}}, {"type": "Feature", "geometry": {"type": "Point", "coordinates": [-119.291, 34.507]}, "properties": {"spring_name": "WHEELER SPRINGS", "temp_f": NaN, "ph": 6.0, "location": "WHEELER SPRINGS 7.5", "usgs_quad": NaN}}, {"type": "Feature", "geometry": {"type": "Point", "coordinates": [-118.348, 33.731]}, "properties": {"spring_name": "WHITES POINT HOT SPRINGS", "temp_f": NaN, "ph": 2.0, "location": "(SAN PEDRO 7.5)", "usgs_quad": NaN}}, {"type": "Feature", "geometry": {"type": "Point", "coordinates": [-118.808, 37.63]}, "properties": {"spring_name": "WHITMORE HOT SPRINGS", "temp_f": NaN, "ph": 19.0, "location": "MT. MORRISON 15", "usgs_quad": NaN}}, {"type": "Feature", "geometry": {"type": "Point", "coordinates": [-122.421, 39.039]}, "properties": {"spring_name": "WILBUR SPRINGS", "temp_f": NaN, "ph": 11.0, "location": "WILBUR SPRINGS 15", "usgs_quad": NaN}}, {"type": "Feature", "geometry": {"type": "Point", "coordinates": [-119.044, 34.582]}, "properties": {"spring_name": "WILLETT HOT SPRINGS", "temp_f": NaN, "ph": 1.0, "location": "(TOPATOPA MOUNTAINS", "usgs_quad": NaN}}, {"type": "Feature", "geometry": {"type": "Point", "coordinates": [-115.58, 33.217]}, "properties": {"spring_name": "WISTER MUD POT", "temp_f": NaN, "ph": 12.0, "location": "NILAND 7.5", "usgs_quad": NaN}}, {"type": "Feature", "geometry": {"type": "Point", "coordinates": [-117.325, 33.67]}, "properties": {"spring_name": "WRENDEN HOT SPRS, ELSINORE HOT SPRS", "temp_f": NaN, "ph": 5.0, "location": "(ELSINORE 7.5)", "usgs_quad": NaN}}, {"type": "Feature", "geometry": {"type": "Point", "coordinates": [-118.478, 35.433]}, "properties": {"spring_name": "YATES HOT SPRINGS", "temp_f": NaN, "ph": 8.0, "location": "PIUTE PEAK 7.5", "usgs_quad": NaN}}, {"type": "Feature", "geometry": {"type": "Point", "coordinates": [-120.024, 39.922]}, "properties": {"spring_name": "ZAMBONI HOT SPRINGS", "temp_f": NaN, "ph": 2.0, "location": "CONSTANTIA 7.5", "usgs_quad": NaN}}, {"type": "Feature", "geometry": {"type": "Point", "coordinates": [-122.285, 38.755]}, "properties": {"spring_name": "ZIM ZIM SPRING", "temp_f": NaN, "ph": 28.0, "location": "(KNOXVILLE 7.5)", "usgs_quad": NaN}}, {"type": "Feature", "geometry": {"type": "Point", "coordinates": [-107.034, 37.741]}, "properties": {"spring_name": "ANTELOPE SPRING", "temp_f": NaN, "ph": 1.0, "location": "WORKMAN CREEK 7.5", "usgs_quad": NaN}}, {"type": "Feature", "geometry": {"type": "Point", "coordinates": [-107.054, 37.728]}, "properties": {"spring_name": "BIRDSIE WARM SPRING", "temp_f": NaN, "ph": 2.0, "location": "(WORKMAN CREEK 7.5)", "usgs_quad": NaN}}, {"type": "Feature", "geometry": {"type": "Point", "coordinates": [-106.056, 38.653]}, "properties": {"spring_name": "BROWNS CANYON WARM SPRING", "temp_f": NaN, "ph": 6.0, "location": "(PONCHA SPRINGS 15)", "usgs_quad": NaN}}, {"type": "Feature", "geometry": {"type": "Point", "coordinates": [-106.072, 38.634]}, "properties": {"spring_name": "BROWNS GROTTO WARM SPRING", "temp_f": NaN, "ph": 7.0, "location": "(PONCHA SPRINGS 15)", "usgs_quad": NaN}}, {"type": "Feature", "geometry": {"type": "Point", "coordinates": [-105.261, 38.433]}, "properties": {"spring_name": "CANON CITY HOT SPRINGS", "temp_f": NaN, "ph": 3.0, "location": "(ROYAL GORGE 15)", "usgs_quad": NaN}}, {"type": "Feature", "geometry": {"type": "Point", "coordinates": [-107.1, 38.272]}, "properties": {"spring_name": "CEBOLLA HOT SPRINGS", "temp_f": NaN, "ph": 1.0, "location": "POWDERHORN 7.5", "usgs_quad": NaN}}, {"type": "Feature", "geometry": {"type": "Point", "coordinates": [-106.825, 38.836]}, "properties": {"spring_name": "CEMENT CREEK HOT SPRING", "temp_f": NaN, "ph": 1.0, "location": "CEMENT MTN. 7.5", "usgs_quad": NaN}}, {"type": "Feature", "geometry": {"type": "Point", "coordinates": [-106.891, 39.012]}, "properties": {"spring_name": "CONUNDRUM HOT SPRINGS", "temp_f": NaN, "ph": 2.0, "location": "MAROON BELLS 7.5", "usgs_quad": NaN}}, {"type": "Feature", "geometry": {"type": "Point", "coordinates": [-106.226, 38.812]}, "properties": {"spring_name": "COTTONWOOD HOT SPRINGS", "temp_f": NaN, "ph": 3.0, "location": "BUENA VISTA 15", "usgs_quad": NaN}}, {"type": "Feature", "geometry": {"type": "Point", "coordinates": [-105.784, 37.294]}, "properties": {"spring_name": "DEXTER SPRING", "temp_f": NaN, "ph": 1.0, "location": "PIKES STOCKADE 7.5", "usgs_quad": NaN}}, {"type": "Feature", "geometry": {"type": "Point", "coordinates": [-107.106, 39.628]}, "properties": {"spring_name": "DOTSERO WARM SPRINGS", "temp_f": NaN, "ph": 1.0, "location": "(GLENWOOD SPRINGS 15)", "usgs_quad": NaN}}, {"type": "Feature", "geometry": {"type": "Point", "coordinates": [-108.091, 37.771]}, "properties": {"spring_name": "DUNTON HOT SPRING", "temp_f": NaN, "ph": 1.0, "location": "DOLORES PEAK 7.5", "usgs_quad": NaN}}, {"type": "Feature", "geometry": {"type": "Point", "coordinates": [-105.277, 39.932]}, "properties": {"spring_name": "ELDORADO SPRINGS", "temp_f": NaN, "ph": 1.0, "location": "ELDORADO SPRINGS 7.5", "usgs_quad": NaN}}, {"type": "Feature", "geometry": {"type": "Point", "coordinates": [-108.117, 37.747]}, "properties": {"spring_name": "GEYSER WARM SPRING", "temp_f": NaN, "ph": 3.0, "location": "(RICO 7.5)", "usgs_quad": NaN}}, {"type": "Feature", "geometry": {"type": "Point", "coordinates": [-107.322, 39.548]}, "properties": {"spring_name": "GLENWOOD SPRINGS", "temp_f": NaN, "ph": 3.0, "location": "GLENWOOD SPRINGS 7.5", "usgs_quad": NaN}}, {"type": "Feature", "geometry": {"type": "Point", "coordinates": [-105.793, 39.017]}, "properties": {"spring_name": "HARTSEL HOT SPRINGS", "temp_f": NaN, "ph": 3.0, "location": "HARTSEL 7.5", "usgs_quad": NaN}}, {"type": "Feature", "geometry": {"type": "Point", "coordinates": [-106.178, 38.732]}, "properties": {"spring_name": "HORTENSE HOT SPRING", "temp_f": NaN, "ph": 5.0, "location": "PONCHA SPRINGS 15", "usgs_quad": NaN}}, {"type": "Feature", "geometry": {"type": "Point", "coordinates": [-106.113, 40.073]}, "properties": {"spring_name": "HOT SULPHUR SPRINGS", "temp_f": NaN, "ph": 3.0, "location": "HOT SULPHUR SPRINGS", "usgs_quad": NaN}}, {"type": "Feature", "geometry": {"type": "Point", "coordinates": [-105.512, 39.739]}, "properties": {"spring_name": "IDAHO SPRINGS", "temp_f": NaN, "ph": 2.0, "location": "IDAHO SPRINGS 7.5", "usgs_quad": NaN}}, {"type": "Feature", "geometry": {"type": "Point", "coordinates": [-107.952, 40.467]}, "properties": {"spring_name": "JUNIPER HOT SPRINGS", "temp_f": NaN, "ph": 1.0, "location": "JUNIPER HOT SPRINGS", "usgs_quad": NaN}}, {"type": "Feature", "geometry": {"type": "Point", "coordinates": [-108.054, 38.014]}, "properties": {"spring_name": "LEMON HOT SPRING", "temp_f": NaN, "ph": 1.0, "location": "(PLACERVILLE 7.5)", "usgs_quad": NaN}}, {"type": "Feature", "geometry": {"type": "Point", "coordinates": [-106.515, 38.517]}, "properties": {"spring_name": "LOWER WAUNITA HOT SPRINGS", "temp_f": NaN, "ph": 8.0, "location": "(PITKIN 7.5)", "usgs_quad": NaN}}, {"type": "Feature", "geometry": {"type": "Point", "coordinates": [-105.924, 38.168]}, "properties": {"spring_name": "MINERAL HOT SPRINGS", "temp_f": NaN, "ph": 5.0, "location": "VILLA GROVE 7.5", "usgs_quad": NaN}}, {"type": "Feature", "geometry": {"type": "Point", "coordinates": [-106.162, 38.733]}, "properties": {"spring_name": "MOUNT PRINCETON HOT SPRINGS", "temp_f": NaN, "ph": 4.0, "location": "PONCHA SPRINGS 15", "usgs_quad": NaN}}, {"type": "Feature", "geometry": {"type": "Point", "coordinates": [-107.736, 38.133]}, "properties": {"spring_name": "ORVIS HOT SPRING", "temp_f": NaN, "ph": 2.0, "location": "DALLAS 7.5", "usgs_quad": NaN}}, {"type": "Feature", "geometry": {"type": "Point", "coordinates": [-107.672, 38.021]}, "properties": {"spring_name": "OURAY HOT SPRINGS", "temp_f": NaN, "ph": 3.0, "location": "(OURAY 7.5)", "usgs_quad": NaN}}, {"type": "Feature", "geometry": {"type": "Point", "coordinates": [-107.011, 37.263]}, "properties": {"spring_name": "PAGOSA SPRINGS", "temp_f": NaN, "ph": 7.0, "location": "PAGOSA SPRINGS 7.5", "usgs_quad": NaN}}, {"type": "Feature", "geometry": {"type": "Point", "coordinates": [-108.131, 37.752]}, "properties": {"spring_name": "PARADISE WARM SPRING", "temp_f": NaN, "ph": 2.0, "location": "(GROUNDHOG MOUNTAIN", "usgs_quad": NaN}}, {"type": "Feature", "geometry": {"type": "Point", "coordinates": [-107.224, 39.227]}, "properties": {"spring_name": "PENNY HOT SPRINGS", "temp_f": NaN, "ph": 4.0, "location": "REDSTONE 7.5", "usgs_quad": NaN}}, {"type": "Feature", "geometry": {"type": "Point", "coordinates": [-107.344, 37.313]},